{
"type": "FeatureCollection",
"name": "solar_points",
"crs": { "type": "name", "properties": { "name": "urn:ogc:def:crs:OGC:1.3:CRS84" } },
"features": [
{ "type": "Feature", "properties": { "District": "Bokaro", "Latitude": 23.758198, "Longitude": 85.930047, "Location": "Community Health Centre, Bermo, Bokaro", "Block": "Bermo", "Capacity(In kWp)": 20, "Category": "Hospital", "Financial Year": " FY 15-16" }, "geometry": { "type": "Point", "coordinates": [ 85.930047, 23.758198 ] } },
{ "type": "Feature", "properties": { "District": "Bokaro", "Latitude": 23.7736894, "Longitude": 85.91232525, "Location": "Dhori Mata Church, Bermo, Bokaro", "Block": "Bermo", "Capacity(In kWp)": 5, "Category": "Miscellaneous", "Financial Year": " FY 15-16" }, "geometry": { "type": "Point", "coordinates": [ 85.91232525, 23.7736894 ] } },
{ "type": "Feature", "properties": { "District": "Bokaro", "Latitude": 23.66316699, "Longitude": 86.01474665000001, "Location": "Referral Hospital, Jainamore, Bokaro", "Block": "Bokaro", "Capacity(In kWp)": 10, "Category": "Hospital", "Financial Year": " FY 15-16" }, "geometry": { "type": "Point", "coordinates": [ 86.01474665, 23.66316699 ] } },
{ "type": "Feature", "properties": { "District": "Bokaro", "Latitude": 23.64099316, "Longitude": 86.15972487000001, "Location": "Sadar Hospital,Bokaro", "Block": "Bokaro", "Capacity(In kWp)": 125, "Category": "Hospital", "Financial Year": " FY 15-16" }, "geometry": { "type": "Point", "coordinates": [ 86.15972487, 23.64099316 ] } },
{ "type": "Feature", "properties": { "District": "Chatra", "Latitude": 24.07757751, "Longitude": 84.74565347, "Location": "Residencial High School, Lawalong, Simariya", "Block": "Simariya", "Capacity(In kWp)": 10, "Category": "Educational Institution", "Financial Year": " FY 15-16" }, "geometry": { "type": "Point", "coordinates": [ 84.74565347, 24.07757751 ] } },
{ "type": "Feature", "properties": { "District": "Chatra", "Latitude": 24.2961076, "Longitude": 84.63716322000001, "Location": "Residencial Primary School, Pratapur", "Block": "Pratapur", "Capacity(In kWp)": 10, "Category": "Educational Institution", "Financial Year": " FY 15-16" }, "geometry": { "type": "Point", "coordinates": [ 84.63716322, 24.2961076 ] } },
{ "type": "Feature", "properties": { "District": "Chatra", "Latitude": 24.21292386, "Longitude": 84.86116324, "Location": "Mandal Jail,Chatra", "Block": "Chatra", "Capacity(In kWp)": 15, "Category": "Govt. Buildings", "Financial Year": " FY 15-16" }, "geometry": { "type": "Point", "coordinates": [ 84.86116324, 24.21292386 ] } },
{ "type": "Feature", "properties": { "District": "Deoghar", "Latitude": 24.49102496, "Longitude": 86.6939185, "Location": "Sadar Hospital", "Block": "Deoghar", "Capacity(In kWp)": 60, "Category": "Hospital", "Financial Year": " FY 15-16" }, "geometry": { "type": "Point", "coordinates": [ 86.6939185, 24.49102496 ] } },
{ "type": "Feature", "properties": { "District": "Dhanbad", "Latitude": 23.79667309, "Longitude": 86.4349162, "Location": "Collectorate building", "Block": "Dhanbad", "Capacity(In kWp)": 80, "Category": "Govt. Buildings", "Financial Year": " FY 15-16" }, "geometry": { "type": "Point", "coordinates": [ 86.4349162, 23.79667309 ] } },
{ "type": "Feature", "properties": { "District": "Dhanbad", "Latitude": 23.8099597, "Longitude": 86.46346128, "Location": "PMCH", "Block": "Dhanbad", "Capacity(In kWp)": 200, "Category": "Govt. Buildings", "Financial Year": " FY 15-16" }, "geometry": { "type": "Point", "coordinates": [ 86.46346128, 23.8099597 ] } },
{ "type": "Feature", "properties": { "District": "Dumka", "Latitude": 24.23303832, "Longitude": 87.3364959, "Location": "Eklabya Model Residential  School, Kathijoria", "Block": "Shikaripara", "Capacity(In kWp)": 10, "Category": "Educational Institution", "Financial Year": " FY 15-16" }, "geometry": { "type": "Point", "coordinates": [ 87.3364959, 24.23303832 ] } },
{ "type": "Feature", "properties": { "District": "Dumka", "Latitude": 24.26650106, "Longitude": 87.25227339, "Location": "Central Jail, Dumka", "Block": "Dumka", "Capacity(In kWp)": 25, "Category": "Govt. Buildings", "Financial Year": " FY 15-16" }, "geometry": { "type": "Point", "coordinates": [ 87.25227339, 24.26650106 ] } },
{ "type": "Feature", "properties": { "District": "Dumka", "Latitude": 24.26166663, "Longitude": 87.24996856, "Location": "Dumka Commissionery", "Block": "Dumka", "Capacity(In kWp)": 25, "Category": "Govt. Buildings", "Financial Year": " FY 15-16" }, "geometry": { "type": "Point", "coordinates": [ 87.24996856, 24.26166663 ] } },
{ "type": "Feature", "properties": { "District": "Dumka", "Latitude": 24.35057415, "Longitude": 87.14624805, "Location": "Primary Health Centre, Jama", "Block": "Jama", "Capacity(In kWp)": 5, "Category": "Hospital", "Financial Year": " FY 15-16" }, "geometry": { "type": "Point", "coordinates": [ 87.14624805, 24.35057415 ] } },
{ "type": "Feature", "properties": { "District": "Dumka", "Latitude": 24.2727458, "Longitude": 87.23798502, "Location": "Residential Boys High School, Gopikander, Dumka", "Block": "Gopikander", "Capacity(In kWp)": 10, "Category": "Educational Institution", "Financial Year": " FY 15-16" }, "geometry": { "type": "Point", "coordinates": [ 87.23798502, 24.2727458 ] } },
{ "type": "Feature", "properties": { "District": "Dumka", "Latitude": 24.23068827, "Longitude": 87.33390627, "Location": "Residential Girls High School, Lakhikund Kadaharbil", "Block": "Dumka ", "Capacity(In kWp)": 10, "Category": "Educational Institution", "Financial Year": " FY 15-16" }, "geometry": { "type": "Point", "coordinates": [ 87.33390627, 24.23068827 ] } },
{ "type": "Feature", "properties": { "District": "Dumka", "Latitude": 24.26774674, "Longitude": 87.25173407, "Location": "Sadar Hospital, Dumka", "Block": "Dumka", "Capacity(In kWp)": 60, "Category": "Hospital", "Financial Year": " FY 15-16" }, "geometry": { "type": "Point", "coordinates": [ 87.25173407, 24.26774674 ] } },
{ "type": "Feature", "properties": { "District": "Dumka", "Latitude": 24.20356603, "Longitude": 87.36732107, "Location": "Residential 10+2 School,Indarbani", "Block": "Shikaripara", "Capacity(In kWp)": 10, "Category": "Educational Institution", "Financial Year": " FY 15-16" }, "geometry": { "type": "Point", "coordinates": [ 87.36732107, 24.20356603 ] } },
{ "type": "Feature", "properties": { "District": "PashchimiSinghbhum", "Latitude": 22.84513081, "Longitude": 86.23243569, "Location": "MGM Medical College, Jamshedpur", "Block": "Jamshedpur ", "Capacity(In kWp)": 250, "Category": "Educational Institution", "Financial Year": " FY 15-16" }, "geometry": { "type": "Point", "coordinates": [ 86.23243569, 22.84513081 ] } },
{ "type": "Feature", "properties": { "District": "PashchimiSinghbhum", "Latitude": 22.56409703, "Longitude": 86.32832271, "Location": "Residencial Boys High School, Sabar Nagar", "Block": "Potka ", "Capacity(In kWp)": 10, "Category": "Educational Institution", "Financial Year": " FY 15-16" }, "geometry": { "type": "Point", "coordinates": [ 86.32832271, 22.56409703 ] } },
{ "type": "Feature", "properties": { "District": "PashchimiSinghbhum", "Latitude": 22.7589348, "Longitude": 86.20139453, "Location": "Sadar Hospital", "Block": "Jamshedpur ", "Capacity(In kWp)": 80, "Category": "Hospital", "Financial Year": " FY 15-16" }, "geometry": { "type": "Point", "coordinates": [ 86.20139453, 22.7589348 ] } },
{ "type": "Feature", "properties": { "District": "PashchimiSinghbhum", "Latitude": 22.56951786, "Longitude": 86.49609934, "Location": "Sub Jail Ghatshila", "Block": "Ghatshila", "Capacity(In kWp)": 15, "Category": "Govt. Buildings", "Financial Year": " FY 15-16" }, "geometry": { "type": "Point", "coordinates": [ 86.49609934, 22.56951786 ] } },
{ "type": "Feature", "properties": { "District": "Garhwa", "Latitude": 24.16171861, "Longitude": 83.790157, "Location": "Collectorate Building, Garhwa", "Block": "Garhwa", "Capacity(In kWp)": 60, "Category": "Govt. Buildings", "Financial Year": " FY 15-16" }, "geometry": { "type": "Point", "coordinates": [ 83.790157, 24.16171861 ] } },
{ "type": "Feature", "properties": { "District": "Garhwa", "Latitude": 24.15860108, "Longitude": 83.78875767, "Location": "District Court, Garhwa", "Block": "Garhwa", "Capacity(In kWp)": 110, "Category": "Govt. Buildings", "Financial Year": " FY 15-16" }, "geometry": { "type": "Point", "coordinates": [ 83.78875767, 24.15860108 ] } },
{ "type": "Feature", "properties": { "District": "Garhwa", "Latitude": 23.88636354, "Longitude": 83.7722618, "Location": "Residencial Boys High School, Kudrum, Ranka", "Block": "Ranka", "Capacity(In kWp)": 10, "Category": "Educational Institution", "Financial Year": " FY 15-16" }, "geometry": { "type": "Point", "coordinates": [ 83.7722618, 23.88636354 ] } },
{ "type": "Feature", "properties": { "District": "Garhwa", "Latitude": 23.85904634, "Longitude": 83.8746848, "Location": "Residencial High School, Ramkanda", "Block": "Ramkanda", "Capacity(In kWp)": 10, "Category": "Educational Institution", "Financial Year": " FY 15-16" }, "geometry": { "type": "Point", "coordinates": [ 83.8746848, 23.85904634 ] } },
{ "type": "Feature", "properties": { "District": "Garhwa", "Latitude": 24.15917246, "Longitude": 83.78978588, "Location": "Mandal Jail,Garhwa", "Block": "Garhwa", "Capacity(In kWp)": 20, "Category": "Govt. Buildings", "Financial Year": " FY 15-16" }, "geometry": { "type": "Point", "coordinates": [ 83.78978588, 24.15917246 ] } },
{ "type": "Feature", "properties": { "District": "Garhwa", "Latitude": 24.1585627, "Longitude": 83.80179408, "Location": "Sadar Hospital,Garhwa", "Block": "Garhwa", "Capacity(In kWp)": 60, "Category": "Hospital", "Financial Year": " FY 15-16" }, "geometry": { "type": "Point", "coordinates": [ 83.80179408, 24.1585627 ] } },
{ "type": "Feature", "properties": { "District": "Giridih", "Latitude": 24.32660916, "Longitude": 83.43070584, "Location": "Residential high school,Jamua", "Block": "Jamua", "Capacity(In kWp)": 10, "Category": "Educational Institution", "Financial Year": " FY 15-16" }, "geometry": { "type": "Point", "coordinates": [ 83.43070584, 24.32660916 ] } },
{ "type": "Feature", "properties": { "District": "Giridih", "Latitude": 24.49476634, "Longitude": 83.84090439000001, "Location": "Residential high school,Khargdiha", "Block": "Jamua", "Capacity(In kWp)": 10, "Category": "Educational Institution", "Financial Year": " FY 15-16" }, "geometry": { "type": "Point", "coordinates": [ 83.84090439, 24.49476634 ] } },
{ "type": "Feature", "properties": { "District": "Giridih", "Latitude": 24.04272097, "Longitude": 86.16003782, "Location": "Residential high school,Pirtand", "Block": "Pirtand ", "Capacity(In kWp)": 10, "Category": "Educational Institution", "Financial Year": " FY 15-16" }, "geometry": { "type": "Point", "coordinates": [ 86.16003782, 24.04272097 ] } },
{ "type": "Feature", "properties": { "District": "Godda", "Latitude": 24.24053414, "Longitude": 86.54332801, "Location": "Residential boys high school,Dhamni,Godda ", "Block": "Sunderpahari", "Capacity(In kWp)": 10, "Category": "Educational Institution", "Financial Year": " FY 15-16" }, "geometry": { "type": "Point", "coordinates": [ 86.54332801, 24.24053414 ] } },
{ "type": "Feature", "properties": { "District": "Godda", "Latitude": 24.82434334, "Longitude": 87.21529506, "Location": "Sadar Hospital,Godda", "Block": "Godda", "Capacity(In kWp)": 60, "Category": "Hospital", "Financial Year": " FY 15-16" }, "geometry": { "type": "Point", "coordinates": [ 87.21529506, 24.82434334 ] } },
{ "type": "Feature", "properties": { "District": "Gumla", "Latitude": 23.03485246, "Longitude": 84.53815818, "Location": "Sadar Hospital Gumla", "Block": "Gumla ", "Capacity(In kWp)": 60, "Category": "Hospital", "Financial Year": " FY 15-16" }, "geometry": { "type": "Point", "coordinates": [ 84.53815818, 23.03485246 ] } },
{ "type": "Feature", "properties": { "District": "Hazaribag", "Latitude": 23.99736176, "Longitude": 85.36588834, "Location": "Hazaribag Commissionery", "Block": null, "Capacity(In kWp)": 10, "Category": "Govt. Buildings", "Financial Year": " FY 15-16" }, "geometry": { "type": "Point", "coordinates": [ 85.36588834, 23.99736176 ] } },
{ "type": "Feature", "properties": { "District": "Hazaribag", "Latitude": 23.99753481, "Longitude": 85.35633922, "Location": "Sadar Hospital Hazaribag", "Block": null, "Capacity(In kWp)": 150, "Category": "Hospital", "Financial Year": " FY 15-16" }, "geometry": { "type": "Point", "coordinates": [ 85.35633922, 23.99753481 ] } },
{ "type": "Feature", "properties": { "District": "Hazaribag", "Latitude": 24.0189355, "Longitude": 85.35937776, "Location": "Central Jail,Hazaribag", "Block": null, "Capacity(In kWp)": 35, "Category": "Govt. Buildings", "Financial Year": " FY 15-16" }, "geometry": { "type": "Point", "coordinates": [ 85.35937776, 24.0189355 ] } },
{ "type": "Feature", "properties": { "District": "Jamtara", "Latitude": 23.96896887, "Longitude": 86.82320685000001, "Location": "Ashram School, Jamtara", "Block": null, "Capacity(In kWp)": 5, "Category": "Educational Institution", "Financial Year": " FY 15-16" }, "geometry": { "type": "Point", "coordinates": [ 86.82320685, 23.96896887 ] } },
{ "type": "Feature", "properties": { "District": "Jamtara", "Latitude": 23.96161429, "Longitude": 86.79673926, "Location": "Mandal Jail Jamtara", "Block": null, "Capacity(In kWp)": 20, "Category": "Govt. Buildings", "Financial Year": " FY 15-16" }, "geometry": { "type": "Point", "coordinates": [ 86.79673926, 23.96161429 ] } },
{ "type": "Feature", "properties": { "District": "Jamtara", "Latitude": 23.9696709, "Longitude": 86.82330985, "Location": "Ashram Girls School,Jamtara", "Block": null, "Capacity(In kWp)": 10, "Category": "Educational Institution", "Financial Year": " FY 15-16" }, "geometry": { "type": "Point", "coordinates": [ 86.82330985, 23.9696709 ] } },
{ "type": "Feature", "properties": { "District": "Jamtara", "Latitude": 23.9557324, "Longitude": 86.77800489000001, "Location": "Residential high school,Dulladih,Jamtara", "Block": null, "Capacity(In kWp)": 10, "Category": "Educational Institution", "Financial Year": " FY 15-16" }, "geometry": { "type": "Point", "coordinates": [ 86.77800489, 23.9557324 ] } },
{ "type": "Feature", "properties": { "District": "Jamtara", "Latitude": 23.98209386, "Longitude": 86.82365829, "Location": "Sadar Hospital,Jamtara", "Block": null, "Capacity(In kWp)": 60, "Category": "Hospital", "Financial Year": " FY 15-16" }, "geometry": { "type": "Point", "coordinates": [ 86.82365829, 23.98209386 ] } },
{ "type": "Feature", "properties": { "District": "Khunti", "Latitude": 23.05673328, "Longitude": 85.28695359, "Location": "Civil Court, Khunti", "Block": null, "Capacity(In kWp)": 180, "Category": "Govt. Buildings", "Financial Year": " FY 15-16" }, "geometry": { "type": "Point", "coordinates": [ 85.28695359, 23.05673328 ] } },
{ "type": "Feature", "properties": { "District": "Khunti", "Latitude": 23.05997514, "Longitude": 85.28797092000001, "Location": "Sub  Jail Khunti", "Block": null, "Capacity(In kWp)": 15, "Category": "Govt. Buildings", "Financial Year": " FY 15-16" }, "geometry": { "type": "Point", "coordinates": [ 85.28797092, 23.05997514 ] } },
{ "type": "Feature", "properties": { "District": "Kodarma", "Latitude": 24.48356759, "Longitude": 85.59669399000001, "Location": "Sadar Hospital ,Kodarma", "Block": null, "Capacity(In kWp)": 80, "Category": "Hospital", "Financial Year": " FY 15-16" }, "geometry": { "type": "Point", "coordinates": [ 85.59669399, 24.48356759 ] } },
{ "type": "Feature", "properties": { "District": "Latehar", "Latitude": 23.66518771, "Longitude": 84.23524188, "Location": "Residencial Boys High School, Garu, Latehar", "Block": null, "Capacity(In kWp)": 10, "Category": "Educational Institution", "Financial Year": " FY 15-16" }, "geometry": { "type": "Point", "coordinates": [ 84.23524188, 23.66518771 ] } },
{ "type": "Feature", "properties": { "District": "Latehar", "Latitude": 23.7425484, "Longitude": 84.50868476, "Location": "Mandal jail,Latehar", "Block": null, "Capacity(In kWp)": 15, "Category": "Govt. Buildings", "Financial Year": " FY 15-16" }, "geometry": { "type": "Point", "coordinates": [ 84.50868476, 23.7425484 ] } },
{ "type": "Feature", "properties": { "District": "Latehar", "Latitude": 23.74346104, "Longitude": 84.50826263, "Location": "Sadar Hospital,Latehar", "Block": null, "Capacity(In kWp)": 60, "Category": "Hospital", "Financial Year": " FY 15-16" }, "geometry": { "type": "Point", "coordinates": [ 84.50826263, 23.74346104 ] } },
{ "type": "Feature", "properties": { "District": "Lohardaga", "Latitude": 23.51898031, "Longitude": 84.66738863, "Location": "Residential High school,Kisko,Lohardaga", "Block": null, "Capacity(In kWp)": 10, "Category": "Educational Institution", "Financial Year": " FY 15-16" }, "geometry": { "type": "Point", "coordinates": [ 84.66738863, 23.51898031 ] } },
{ "type": "Feature", "properties": { "District": "Pakur", "Latitude": 24.63646661, "Longitude": 87.81007394, "Location": "DC Office, Pakur", "Block": null, "Capacity(In kWp)": 20, "Category": "Govt. Buildings", "Financial Year": " FY 15-16" }, "geometry": { "type": "Point", "coordinates": [ 87.81007394, 24.63646661 ] } },
{ "type": "Feature", "properties": { "District": "Pakur", "Latitude": 24.63754897, "Longitude": 87.83683203, "Location": "Sadar Hospital, Pakur", "Block": null, "Capacity(In kWp)": 60, "Category": "Hospital", "Financial Year": " FY 15-16" }, "geometry": { "type": "Point", "coordinates": [ 87.83683203, 24.63754897 ] } },
{ "type": "Feature", "properties": { "District": "Pakur", "Latitude": 24.72002124, "Longitude": 87.71029868, "Location": "Residential high school,Hiranpur,Pakur", "Block": null, "Capacity(In kWp)": 10, "Category": "Educational Institution", "Financial Year": " FY 15-16" }, "geometry": { "type": "Point", "coordinates": [ 87.71029868, 24.72002124 ] } },
{ "type": "Feature", "properties": { "District": "Palamu", "Latitude": 23.67477453, "Longitude": 84.23658515, "Location": "Forest Rest House Maromar, Palamu", "Block": null, "Capacity(In kWp)": 5, "Category": "Govt. Buildings", "Financial Year": " FY 15-16" }, "geometry": { "type": "Point", "coordinates": [ 84.23658515, 23.67477453 ] } },
{ "type": "Feature", "properties": { "District": "Palamu", "Latitude": 24.50915586, "Longitude": 84.25155073000001, "Location": "Residencial High School, Kawakhoh, Palamu", "Block": null, "Capacity(In kWp)": 10, "Category": "Educational Institution", "Financial Year": " FY 15-16" }, "geometry": { "type": "Point", "coordinates": [ 84.25155073, 24.50915586 ] } },
{ "type": "Feature", "properties": { "District": "Palamu", "Latitude": 24.04496465, "Longitude": 84.06007421, "Location": "Sadar Hospital, Daltenganj", "Block": null, "Capacity(In kWp)": 80, "Category": "Hospital", "Financial Year": " FY 15-16" }, "geometry": { "type": "Point", "coordinates": [ 84.06007421, 24.04496465 ] } },
{ "type": "Feature", "properties": { "District": "Palamu", "Latitude": 24.04487056, "Longitude": 84.06596173, "Location": "Central jail,Medininagar,Palamu", "Block": null, "Capacity(In kWp)": 35, "Category": "Govt. Buildings", "Financial Year": " FY 15-16" }, "geometry": { "type": "Point", "coordinates": [ 84.06596173, 24.04487056 ] } },
{ "type": "Feature", "properties": { "District": "Ramgarh", "Latitude": 23.59690791, "Longitude": 85.53493095, "Location": "Sadar Hospital Ramgarh", "Block": null, "Capacity(In kWp)": 100, "Category": "Hospital", "Financial Year": " FY 15-16" }, "geometry": { "type": "Point", "coordinates": [ 85.53493095, 23.59690791 ] } },
{ "type": "Feature", "properties": { "District": "Ramgarh", "Latitude": 23.61158538, "Longitude": 85.52334519, "Location": "DC office, Ramgarh", "Block": null, "Capacity(In kWp)": 70, "Category": "Govt. Buildings", "Financial Year": " FY 15-16" }, "geometry": { "type": "Point", "coordinates": [ 85.52334519, 23.61158538 ] } },
{ "type": "Feature", "properties": { "District": "Ramgarh", "Latitude": 23.59920128, "Longitude": 85.57410803, "Location": "Sub Jail,Ramgarh", "Block": null, "Capacity(In kWp)": 20, "Category": "Govt. Buildings", "Financial Year": " FY 15-16" }, "geometry": { "type": "Point", "coordinates": [ 85.57410803, 23.59920128 ] } },
{ "type": "Feature", "properties": { "District": "Ranchi", "Latitude": 23.38383392, "Longitude": 85.31803288, "Location": "ATI Building, Ranchi", "Block": null, "Capacity(In kWp)": 100, "Category": "Govt. Buildings", "Financial Year": " FY 15-16" }, "geometry": { "type": "Point", "coordinates": [ 85.31803288, 23.38383392 ] } },
{ "type": "Feature", "properties": { "District": "Ranchi", "Latitude": 23.37319094, "Longitude": 85.39114584, "Location": "Birsa Munda Central Jail Hotwar", "Block": null, "Capacity(In kWp)": 35, "Category": "Govt. Buildings", "Financial Year": " FY 15-16" }, "geometry": { "type": "Point", "coordinates": [ 85.39114584, 23.37319094 ] } },
{ "type": "Feature", "properties": { "District": "Ranchi", "Latitude": 23.34346318, "Longitude": 85.33351277, "Location": "JAP-1, Doranda, Ranchi", "Block": null, "Capacity(In kWp)": 5, "Category": "Hospital", "Financial Year": " FY 15-16" }, "geometry": { "type": "Point", "coordinates": [ 85.33351277, 23.34346318 ] } },
{ "type": "Feature", "properties": { "District": "Ranchi", "Latitude": 23.37429084, "Longitude": 85.39327116, "Location": "JAP-10", "Block": null, "Capacity(In kWp)": 60, "Category": "Hospital", "Financial Year": " FY 15-16" }, "geometry": { "type": "Point", "coordinates": [ 85.39327116, 23.37429084 ] } },
{ "type": "Feature", "properties": { "District": "Ranchi", "Latitude": 23.33772245, "Longitude": 85.33392393, "Location": "JREDA Office, Ranchi", "Block": null, "Capacity(In kWp)": 15, "Category": "Govt. Buildings", "Financial Year": " FY 15-16" }, "geometry": { "type": "Point", "coordinates": [ 85.33392393, 23.33772245 ] } },
{ "type": "Feature", "properties": { "District": "Ranchi", "Latitude": 23.29689461, "Longitude": 85.30016218, "Location": "Police Headquarters, Ranchi", "Block": null, "Capacity(In kWp)": 70, "Category": "Police Station", "Financial Year": " FY 15-16" }, "geometry": { "type": "Point", "coordinates": [ 85.30016218, 23.29689461 ] } },
{ "type": "Feature", "properties": { "District": "Ranchi", "Latitude": 23.2956654, "Longitude": 85.29278813000001, "Location": "Project Buildings, Ranchi", "Block": null, "Capacity(In kWp)": 135, "Category": "Govt. Buildings", "Financial Year": " FY 15-16" }, "geometry": { "type": "Point", "coordinates": [ 85.29278813, 23.2956654 ] } },
{ "type": "Feature", "properties": { "District": "Ranchi", "Latitude": 23.37840202, "Longitude": 85.32357271, "Location": "Ranchi Collectorate, Ranchi", "Block": null, "Capacity(In kWp)": 100, "Category": "Govt. Buildings", "Financial Year": " FY 15-16" }, "geometry": { "type": "Point", "coordinates": [ 85.32357271, 23.37840202 ] } },
{ "type": "Feature", "properties": { "District": "Ranchi", "Latitude": 23.3778044, "Longitude": 85.3252143, "Location": "Ranchi Commissionery , Ranchi", "Block": null, "Capacity(In kWp)": 5, "Category": "Govt. Buildings", "Financial Year": " FY 15-16" }, "geometry": { "type": "Point", "coordinates": [ 85.3252143, 23.3778044 ] } },
{ "type": "Feature", "properties": { "District": "Ranchi", "Latitude": 23.39123457, "Longitude": 85.34874, "Location": "RIMS, Ranchi ", "Block": null, "Capacity(In kWp)": 400, "Category": "Hospital", "Financial Year": " FY 15-16" }, "geometry": { "type": "Point", "coordinates": [ 85.34874, 23.39123457 ] } },
{ "type": "Feature", "properties": { "District": "Ranchi", "Latitude": 23.38721549, "Longitude": 85.32417816, "Location": "State Guest House, Ranchi", "Block": null, "Capacity(In kWp)": 60, "Category": "Govt. Buildings", "Financial Year": " FY 15-16" }, "geometry": { "type": "Point", "coordinates": [ 85.32417816, 23.38721549 ] } },
{ "type": "Feature", "properties": { "District": "Ranchi", "Latitude": 23.32464194, "Longitude": 85.27092417, "Location": "Vidhan Sabha, Ranchi ", "Block": null, "Capacity(In kWp)": 50, "Category": "Govt. Buildings", "Financial Year": " FY 15-16" }, "geometry": { "type": "Point", "coordinates": [ 85.27092417, 23.32464194 ] } },
{ "type": "Feature", "properties": { "District": "Ranchi", "Latitude": 23.34127322, "Longitude": 85.33103785, "Location": "Yojna Bhawan & Nepal House , Ranchi", "Block": null, "Capacity(In kWp)": 200, "Category": "Govt. Buildings", "Financial Year": " FY 15-16" }, "geometry": { "type": "Point", "coordinates": [ 85.33103785, 23.34127322 ] } },
{ "type": "Feature", "properties": { "District": "Ranchi", "Latitude": 23.43408429, "Longitude": 85.31334944, "Location": "RINPASS,Ranchi", "Block": null, "Capacity(In kWp)": 150, "Category": "Hospital", "Financial Year": " FY 15-16" }, "geometry": { "type": "Point", "coordinates": [ 85.31334944, 23.43408429 ] } },
{ "type": "Feature", "properties": { "District": "Sahibganj", "Latitude": 25.22785784, "Longitude": 87.64631291000001, "Location": "District Court, Sahebganj", "Block": null, "Capacity(In kWp)": 90, "Category": "Govt. Buildings", "Financial Year": " FY 15-16" }, "geometry": { "type": "Point", "coordinates": [ 87.64631291, 25.22785784 ] } },
{ "type": "Feature", "properties": { "District": "Sahibganj", "Latitude": 25.23605709, "Longitude": 87.63417544000001, "Location": "Sadar Hospital, Sahebganj", "Block": null, "Capacity(In kWp)": 70, "Category": "Hospital", "Financial Year": " FY 15-16" }, "geometry": { "type": "Point", "coordinates": [ 87.63417544, 25.23605709 ] } },
{ "type": "Feature", "properties": { "District": "Sahibganj", "Latitude": 25.24039714, "Longitude": 87.64589123, "Location": "Residential boys high school,Banjhi,Sahebganj", "Block": null, "Capacity(In kWp)": 10, "Category": "Educational Institution", "Financial Year": " FY 15-16" }, "geometry": { "type": "Point", "coordinates": [ 87.64589123, 25.24039714 ] } },
{ "type": "Feature", "properties": { "District": "SaraikelaKharsawan", "Latitude": 22.8491563, "Longitude": 85.73166103, "Location": "Ahram School Kuchai", "Block": null, "Capacity(In kWp)": 10, "Category": "Educational Institution", "Financial Year": " FY 15-16" }, "geometry": { "type": "Point", "coordinates": [ 85.73166103, 22.8491563 ] } },
{ "type": "Feature", "properties": { "District": "SaraikelaKharsawan", "Latitude": 22.7116144, "Longitude": 85.93951805, "Location": "Residencial Boys High School, Sanjay Saraikela", "Block": null, "Capacity(In kWp)": 10, "Category": "Educational Institution", "Financial Year": " FY 15-16" }, "geometry": { "type": "Point", "coordinates": [ 85.93951805, 22.7116144 ] } },
{ "type": "Feature", "properties": { "District": "Simdega", "Latitude": 22.6127122, "Longitude": 84.49872596, "Location": "DC Office, Simdega", "Block": null, "Capacity(In kWp)": 60, "Category": "Govt. Buildings", "Financial Year": " FY 15-16" }, "geometry": { "type": "Point", "coordinates": [ 84.49872596, 22.6127122 ] } },
{ "type": "Feature", "properties": { "District": "Simdega", "Latitude": 22.61140425, "Longitude": 84.50048708, "Location": "District Court, Simdega", "Block": null, "Capacity(In kWp)": 100, "Category": "Govt. Buildings", "Financial Year": " FY 15-16" }, "geometry": { "type": "Point", "coordinates": [ 84.50048708, 22.61140425 ] } },
{ "type": "Feature", "properties": { "District": "Simdega", "Latitude": 22.61366599, "Longitude": 84.49206076, "Location": "Mandal Jail Simdega", "Block": null, "Capacity(In kWp)": 15, "Category": "Govt. Buildings", "Financial Year": " FY 15-16" }, "geometry": { "type": "Point", "coordinates": [ 84.49206076, 22.61366599 ] } },
{ "type": "Feature", "properties": { "District": "purbaSinghbhum", "Latitude": 22.55363284, "Longitude": 85.80827826, "Location": "Mandal Jail Chaibasa", "Block": null, "Capacity(In kWp)": 20, "Category": "Govt. Buildings", "Financial Year": " FY 15-16" }, "geometry": { "type": "Point", "coordinates": [ 85.80827826, 22.55363284 ] } },
{ "type": "Feature", "properties": { "District": "purbaSinghbhum", "Latitude": 22.77645758, "Longitude": 85.35928851, "Location": "Residencial Boys High School, Kundrugutu, purba Singhbhum", "Block": null, "Capacity(In kWp)": 10, "Category": "Educational Institution", "Financial Year": " FY 15-16" }, "geometry": { "type": "Point", "coordinates": [ 85.35928851, 22.77645758 ] } },
{ "type": "Feature", "properties": { "District": "Bokaro", "Latitude": 23.68099145, "Longitude": 86.14969473, "Location": "Nyay Sadan,Civil Court,Bokaro", "Block": null, "Capacity(In kWp)": 40, "Category": "Govt. Buildings", "Financial Year": "FY 16-17" }, "geometry": { "type": "Point", "coordinates": [ 86.14969473, 23.68099145 ] } },
{ "type": "Feature", "properties": { "District": "Bokaro", "Latitude": 23.62707175, "Longitude": 86.17684767, "Location": "Range Forest Office, Chas Bokaro", "Block": null, "Capacity(In kWp)": 2, "Category": "Govt. Buildings", "Financial Year": "FY 16-17" }, "geometry": { "type": "Point", "coordinates": [ 86.17684767, 23.62707175 ] } },
{ "type": "Feature", "properties": { "District": "Bokaro", "Latitude": 23.62317757, "Longitude": 86.17917601000001, "Location": "Range Forest Office, Petarwar Bokaro", "Block": null, "Capacity(In kWp)": 2, "Category": "Govt. Buildings", "Financial Year": "FY 16-17" }, "geometry": { "type": "Point", "coordinates": [ 86.17917601, 23.62317757 ] } },
{ "type": "Feature", "properties": { "District": "Bokaro", "Latitude": 23.77662719, "Longitude": 85.93020727, "Location": "Range Forest Office, Bermo Bokaro", "Block": null, "Capacity(In kWp)": 2, "Category": "Govt. Buildings", "Financial Year": "FY 16-17" }, "geometry": { "type": "Point", "coordinates": [ 85.93020727, 23.77662719 ] } },
{ "type": "Feature", "properties": { "District": "Bokaro", "Latitude": 23.57013356, "Longitude": 86.37486723000001, "Location": "KGBV CHANDANKIYARI", "Block": null, "Capacity(In kWp)": 20, "Category": "Educational Institution", "Financial Year": "FY 16-17" }, "geometry": { "type": "Point", "coordinates": [ 86.37486723, 23.57013356 ] } },
{ "type": "Feature", "properties": { "District": "Bokaro", "Latitude": 23.61526959, "Longitude": 86.18140842, "Location": "KGBV CHAS", "Block": null, "Capacity(In kWp)": 20, "Category": "Educational Institution", "Financial Year": "FY 16-17" }, "geometry": { "type": "Point", "coordinates": [ 86.18140842, 23.61526959 ] } },
{ "type": "Feature", "properties": { "District": "Bokaro", "Latitude": 23.75049425, "Longitude": 85.83524935, "Location": "KGBV GOMIA", "Block": null, "Capacity(In kWp)": 20, "Category": "Educational Institution", "Financial Year": "FY 16-17" }, "geometry": { "type": "Point", "coordinates": [ 85.83524935, 23.75049425 ] } },
{ "type": "Feature", "properties": { "District": "Bokaro", "Latitude": 23.66224576, "Longitude": 85.97923643, "Location": "KGBV JARIDIH", "Block": null, "Capacity(In kWp)": 20, "Category": "Educational Institution", "Financial Year": "FY 16-17" }, "geometry": { "type": "Point", "coordinates": [ 85.97923643, 23.66224576 ] } },
{ "type": "Feature", "properties": { "District": "Bokaro", "Latitude": 23.65208621, "Longitude": 85.92858132000001, "Location": "KGBV KASMAR", "Block": null, "Capacity(In kWp)": 20, "Category": "Educational Institution", "Financial Year": "FY 16-17" }, "geometry": { "type": "Point", "coordinates": [ 85.92858132, 23.65208621 ] } },
{ "type": "Feature", "properties": { "District": "Bokaro", "Latitude": 23.85324771, "Longitude": 86.04570197, "Location": "KGBV NAWADIH", "Block": null, "Capacity(In kWp)": 20, "Category": "Educational Institution", "Financial Year": "FY 16-17" }, "geometry": { "type": "Point", "coordinates": [ 86.04570197, 23.85324771 ] } },
{ "type": "Feature", "properties": { "District": "Bokaro", "Latitude": 23.73373529, "Longitude": 85.85722632, "Location": "KGBV PETARWAR", "Block": null, "Capacity(In kWp)": 20, "Category": "Educational Institution", "Financial Year": "FY 16-17" }, "geometry": { "type": "Point", "coordinates": [ 85.85722632, 23.73373529 ] } },
{ "type": "Feature", "properties": { "District": "Chatra", "Latitude": 24.20740457, "Longitude": 84.87211386, "Location": "KGBV CHATRA", "Block": null, "Capacity(In kWp)": 20, "Category": "Educational Institution", "Financial Year": "FY 16-17" }, "geometry": { "type": "Point", "coordinates": [ 84.87211386, 24.20740457 ] } },
{ "type": "Feature", "properties": { "District": "Chatra", "Latitude": 24.1854215, "Longitude": 85.0247146, "Location": "KGBV GIDHOR", "Block": null, "Capacity(In kWp)": 20, "Category": "Educational Institution", "Financial Year": "FY 16-17" }, "geometry": { "type": "Point", "coordinates": [ 85.0247146, 24.1854215 ] } },
{ "type": "Feature", "properties": { "District": "Chatra", "Latitude": 24.43557849, "Longitude": 84.81463953, "Location": "KGBV HUNTERGANJ", "Block": null, "Capacity(In kWp)": 20, "Category": "Educational Institution", "Financial Year": "FY 16-17" }, "geometry": { "type": "Point", "coordinates": [ 84.81463953, 24.43557849 ] } },
{ "type": "Feature", "properties": { "District": "Chatra", "Latitude": 24.32262419, "Longitude": 85.17996883000001, "Location": "KGBV ITKHORI", "Block": null, "Capacity(In kWp)": 20, "Category": "Educational Institution", "Financial Year": "FY 16-17" }, "geometry": { "type": "Point", "coordinates": [ 85.17996883, 24.32262419 ] } },
{ "type": "Feature", "properties": { "District": "Chatra", "Latitude": 24.20879214, "Longitude": 84.64726089, "Location": "KGBV KUNDA", "Block": null, "Capacity(In kWp)": 20, "Category": "Educational Institution", "Financial Year": "FY 16-17" }, "geometry": { "type": "Point", "coordinates": [ 84.64726089, 24.20879214 ] } },
{ "type": "Feature", "properties": { "District": "Chatra", "Latitude": 24.14943034, "Longitude": 84.66109067, "Location": "KGBV LAWALONG", "Block": null, "Capacity(In kWp)": 20, "Category": "Educational Institution", "Financial Year": "FY 16-17" }, "geometry": { "type": "Point", "coordinates": [ 84.66109067, 24.14943034 ] } },
{ "type": "Feature", "properties": { "District": "Chatra", "Latitude": 24.12771218, "Longitude": 85.06318842, "Location": "KGBV PATTHALGADA", "Block": null, "Capacity(In kWp)": 20, "Category": "Educational Institution", "Financial Year": "FY 16-17" }, "geometry": { "type": "Point", "coordinates": [ 85.06318842, 24.12771218 ] } },
{ "type": "Feature", "properties": { "District": "Chatra", "Latitude": 24.05145155, "Longitude": 84.93289142, "Location": "KGAV SIMARIA", "Block": null, "Capacity(In kWp)": 20, "Category": "Educational Institution", "Financial Year": "FY 16-17" }, "geometry": { "type": "Point", "coordinates": [ 84.93289142, 24.05145155 ] } },
{ "type": "Feature", "properties": { "District": "Chatra", "Latitude": 23.86086573, "Longitude": 85.01120298, "Location": "KGBV TANDWA", "Block": null, "Capacity(In kWp)": 20, "Category": "Educational Institution", "Financial Year": "FY 16-17" }, "geometry": { "type": "Point", "coordinates": [ 85.01120298, 23.86086573 ] } },
{ "type": "Feature", "properties": { "District": "Chatra", "Latitude": 24.0603219, "Longitude": 84.94575037, "Location": "Residential High School, Simariya", "Block": null, "Capacity(In kWp)": 10, "Category": "Educational Institution", "Financial Year": "FY 16-17" }, "geometry": { "type": "Point", "coordinates": [ 84.94575037, 24.0603219 ] } },
{ "type": "Feature", "properties": { "District": "Chatra", "Latitude": 23.85784447, "Longitude": 85.21939628, "Location": "Range Forest Office, Wildlife Range Chatra", "Block": null, "Capacity(In kWp)": 2, "Category": "Govt. Buildings", "Financial Year": "FY 16-17" }, "geometry": { "type": "Point", "coordinates": [ 85.21939628, 23.85784447 ] } },
{ "type": "Feature", "properties": { "District": "Chatra", "Latitude": 24.05071284, "Longitude": 84.93289735, "Location": "Residential Primary School, Simariya, Chatra", "Block": null, "Capacity(In kWp)": 10, "Category": "Educational Institution", "Financial Year": "FY 16-17" }, "geometry": { "type": "Point", "coordinates": [ 84.93289735, 24.05071284 ] } },
{ "type": "Feature", "properties": { "District": "Chatra", "Latitude": 24.4363041, "Longitude": 84.81112589, "Location": "Residential Primary School, Hunterganj, Chatra", "Block": null, "Capacity(In kWp)": 10, "Category": "Educational Institution", "Financial Year": "FY 16-17" }, "geometry": { "type": "Point", "coordinates": [ 84.81112589, 24.4363041 ] } },
{ "type": "Feature", "properties": { "District": "Chatra", "Latitude": 24.20812258, "Longitude": 84.65264377, "Location": "Range Forest Office, Kunda, Chatra", "Block": null, "Capacity(In kWp)": 2, "Category": "Govt. Buildings", "Financial Year": "FY 16-17" }, "geometry": { "type": "Point", "coordinates": [ 84.65264377, 24.20812258 ] } },
{ "type": "Feature", "properties": { "District": "Chatra", "Latitude": 24.29394215, "Longitude": 84.63681262, "Location": "Range Forest Office, Pratapur, Chatra", "Block": null, "Capacity(In kWp)": 2, "Category": "Govt. Buildings", "Financial Year": "FY 16-17" }, "geometry": { "type": "Point", "coordinates": [ 84.63681262, 24.29394215 ] } },
{ "type": "Feature", "properties": { "District": "Chatra", "Latitude": 24.21031135, "Longitude": 84.88399163, "Location": "Civil Courts, Chatra", "Block": null, "Capacity(In kWp)": 100, "Category": "Govt. Buildings", "Financial Year": "FY 16-17" }, "geometry": { "type": "Point", "coordinates": [ 84.88399163, 24.21031135 ] } },
{ "type": "Feature", "properties": { "District": "Chatra", "Latitude": 23.82560362, "Longitude": 84.80398238, "Location": "Residential Primary School, Balumath.", "Block": null, "Capacity(In kWp)": 10, "Category": "Educational Institution", "Financial Year": "FY 16-17" }, "geometry": { "type": "Point", "coordinates": [ 84.80398238, 23.82560362 ] } },
{ "type": "Feature", "properties": { "District": "Deoghar", "Latitude": 24.48258258, "Longitude": 86.67705623000001, "Location": "Range Forest Office, Soil Conservation Range Deoghar", "Block": null, "Capacity(In kWp)": 2, "Category": "Govt. Buildings", "Financial Year": "FY 16-17" }, "geometry": { "type": "Point", "coordinates": [ 86.67705623, 24.48258258 ] } },
{ "type": "Feature", "properties": { "District": "Deoghar", "Latitude": 24.28934604, "Longitude": 86.63946928, "Location": "Range Forest Office, Soil Conservation Range Madhupur", "Block": null, "Capacity(In kWp)": 2, "Category": "Govt. Buildings", "Financial Year": "FY 16-17" }, "geometry": { "type": "Point", "coordinates": [ 86.63946928, 24.28934604 ] } },
{ "type": "Feature", "properties": { "District": "Deoghar", "Latitude": 24.41086824, "Longitude": 86.96139581, "Location": "KGBV DEOGHAR", "Block": null, "Capacity(In kWp)": 20, "Category": "Educational Institution", "Financial Year": "FY 16-17" }, "geometry": { "type": "Point", "coordinates": [ 86.96139581, 24.41086824 ] } },
{ "type": "Feature", "properties": { "District": "Deoghar", "Latitude": 24.29416669, "Longitude": 86.63831226000001, "Location": "KGBV MADHUPUR", "Block": null, "Capacity(In kWp)": 20, "Category": "Educational Institution", "Financial Year": "FY 16-17" }, "geometry": { "type": "Point", "coordinates": [ 86.63831226, 24.29416669 ] } },
{ "type": "Feature", "properties": { "District": "Deoghar", "Latitude": 24.56412352, "Longitude": 86.81270625000001, "Location": "KGBV  MOHANPUR", "Block": null, "Capacity(In kWp)": 20, "Category": "Educational Institution", "Financial Year": "FY 16-17" }, "geometry": { "type": "Point", "coordinates": [ 86.81270625, 24.56412352 ] } },
{ "type": "Feature", "properties": { "District": "Deoghar", "Latitude": 24.24648875, "Longitude": 87.0068966, "Location": "KGBV PALOJORI", "Block": null, "Capacity(In kWp)": 20, "Category": "Educational Institution", "Financial Year": "FY 16-17" }, "geometry": { "type": "Point", "coordinates": [ 87.0068966, 24.24648875 ] } },
{ "type": "Feature", "properties": { "District": "Deoghar", "Latitude": 24.23898637, "Longitude": 86.85629784, "Location": "KGBV SARATH", "Block": null, "Capacity(In kWp)": 20, "Category": "Educational Institution", "Financial Year": "FY 16-17" }, "geometry": { "type": "Point", "coordinates": [ 86.85629784, 24.23898637 ] } },
{ "type": "Feature", "properties": { "District": "Deoghar", "Latitude": 24.39316033, "Longitude": 86.7840642, "Location": "KGBV  SARWAN", "Block": null, "Capacity(In kWp)": 20, "Category": "Educational Institution", "Financial Year": "FY 16-17" }, "geometry": { "type": "Point", "coordinates": [ 86.7840642, 24.39316033 ] } },
{ "type": "Feature", "properties": { "District": "Deoghar", "Latitude": 24.29416282, "Longitude": 86.88084503, "Location": "Residential Middle School, Bamandiha.", "Block": null, "Capacity(In kWp)": 10, "Category": "Educational Institution", "Financial Year": "FY 16-17" }, "geometry": { "type": "Point", "coordinates": [ 86.88084503, 24.29416282 ] } },
{ "type": "Feature", "properties": { "District": "Dhanbad", "Latitude": 23.88116495, "Longitude": 86.3520172, "Location": "Range Forest Office, Topchachi, Dhanbad", "Block": null, "Capacity(In kWp)": 2, "Category": "Govt. Buildings", "Financial Year": "FY 16-17" }, "geometry": { "type": "Point", "coordinates": [ 86.3520172, 23.88116495 ] } },
{ "type": "Feature", "properties": { "District": "Dhanbad", "Latitude": 23.98905972, "Longitude": 86.45314026, "Location": "Range Forest Office, Tundi, Dhanbad", "Block": null, "Capacity(In kWp)": 2, "Category": "Govt. Buildings", "Financial Year": "FY 16-17" }, "geometry": { "type": "Point", "coordinates": [ 86.45314026, 23.98905972 ] } },
{ "type": "Feature", "properties": { "District": "Dhanbad", "Latitude": 23.83495875, "Longitude": 86.42576883, "Location": "KGBV Baliapur", "Block": null, "Capacity(In kWp)": 20, "Category": "Educational Institution", "Financial Year": "FY 16-17" }, "geometry": { "type": "Point", "coordinates": [ 86.42576883, 23.83495875 ] } },
{ "type": "Feature", "properties": { "District": "Dhanbad", "Latitude": 23.81509129, "Longitude": 86.55638047, "Location": "KGBV Govindpur", "Block": null, "Capacity(In kWp)": 20, "Category": "Educational Institution", "Financial Year": "FY 16-17" }, "geometry": { "type": "Point", "coordinates": [ 86.55638047, 23.81509129 ] } },
{ "type": "Feature", "properties": { "District": "Dhanbad", "Latitude": 23.68861776, "Longitude": 86.40038922, "Location": "KGBV Jharia", "Block": null, "Capacity(In kWp)": 20, "Category": "Educational Institution", "Financial Year": "FY 16-17" }, "geometry": { "type": "Point", "coordinates": [ 86.40038922, 23.68861776 ] } },
{ "type": "Feature", "properties": { "District": "Dhanbad", "Latitude": 23.78949951, "Longitude": 86.67782643, "Location": "KGBV Nirsa", "Block": null, "Capacity(In kWp)": 20, "Category": "Educational Institution", "Financial Year": "FY 16-17" }, "geometry": { "type": "Point", "coordinates": [ 86.67782643, 23.78949951 ] } },
{ "type": "Feature", "properties": { "District": "Dhanbad", "Latitude": 23.90069073, "Longitude": 86.21080184, "Location": "KGBV Topchanchi", "Block": null, "Capacity(In kWp)": 20, "Category": "Educational Institution", "Financial Year": "FY 16-17" }, "geometry": { "type": "Point", "coordinates": [ 86.21080184, 23.90069073 ] } },
{ "type": "Feature", "properties": { "District": "Dhanbad", "Latitude": 23.99542285, "Longitude": 86.45217924000001, "Location": "KGBV Tundi", "Block": null, "Capacity(In kWp)": 20, "Category": "Educational Institution", "Financial Year": "FY 16-17" }, "geometry": { "type": "Point", "coordinates": [ 86.45217924, 23.99542285 ] } },
{ "type": "Feature", "properties": { "District": "Dumka", "Latitude": 24.21092963, "Longitude": 84.88416778, "Location": "Civil Courts, Chatra", "Block": null, "Capacity(In kWp)": 10, "Category": "Govt. Buildings", "Financial Year": "FY 16-17" }, "geometry": { "type": "Point", "coordinates": [ 84.88416778, 24.21092963 ] } },
{ "type": "Feature", "properties": { "District": "Dumka", "Latitude": 24.228662, "Longitude": 87.27271588000001, "Location": "Residential Middle School,Asansol,Aerodrum Road,Dumka", "Block": null, "Capacity(In kWp)": 10, "Category": "Educational Institution", "Financial Year": "FY 16-17" }, "geometry": { "type": "Point", "coordinates": [ 87.27271588, 24.228662 ] } },
{ "type": "Feature", "properties": { "District": "Dumka", "Latitude": 24.27704233, "Longitude": 87.26410745, "Location": "Residential Middle School,Kairabuni,University Road ,Dumka", "Block": null, "Capacity(In kWp)": 10, "Category": "Educational Institution", "Financial Year": "FY 16-17" }, "geometry": { "type": "Point", "coordinates": [ 87.26410745, 24.27704233 ] } },
{ "type": "Feature", "properties": { "District": "Dumka", "Latitude": 24.28207408, "Longitude": 87.27595013, "Location": "Residential Middle School,Uper Murga Thali,Near Kairabani,Dumka", "Block": null, "Capacity(In kWp)": 10, "Category": "Educational Institution", "Financial Year": "FY 16-17" }, "geometry": { "type": "Point", "coordinates": [ 87.27595013, 24.28207408 ] } },
{ "type": "Feature", "properties": { "District": "Dumka", "Latitude": 24.23948783, "Longitude": 87.47618267, "Location": "Residential Middle School,shikaripara,Dumka", "Block": null, "Capacity(In kWp)": 10, "Category": "Educational Institution", "Financial Year": "FY 16-17" }, "geometry": { "type": "Point", "coordinates": [ 87.47618267, 24.23948783 ] } },
{ "type": "Feature", "properties": { "District": "Dumka", "Latitude": 24.39328471, "Longitude": 87.05408947, "Location": "Residential MiddleSchool,Mahra,Jharmundi Block,Dumka", "Block": null, "Capacity(In kWp)": 10, "Category": "Educational Institution", "Financial Year": "FY 16-17" }, "geometry": { "type": "Point", "coordinates": [ 87.05408947, 24.39328471 ] } },
{ "type": "Feature", "properties": { "District": "Dumka", "Latitude": 24.15873231, "Longitude": 87.18037455, "Location": "Residential Middle School,Masliya Block,Dumka", "Block": null, "Capacity(In kWp)": 10, "Category": "Educational Institution", "Financial Year": "FY 16-17" }, "geometry": { "type": "Point", "coordinates": [ 87.18037455, 24.15873231 ] } },
{ "type": "Feature", "properties": { "District": "Dumka", "Latitude": 24.150743, "Longitude": 87.43800284, "Location": " School, Gumapahadi,Dumka", "Block": null, "Capacity(In kWp)": 10, "Category": "Educational Institution", "Financial Year": "FY 16-17" }, "geometry": { "type": "Point", "coordinates": [ 87.43800284, 24.150743 ] } },
{ "type": "Feature", "properties": { "District": "Dumka", "Latitude": 24.35003961, "Longitude": 87.14828359000001, "Location": "Residential Middle School, Jama,Dumka", "Block": null, "Capacity(In kWp)": 10, "Category": "Educational Institution", "Financial Year": "FY 16-17" }, "geometry": { "type": "Point", "coordinates": [ 87.14828359, 24.35003961 ] } },
{ "type": "Feature", "properties": { "District": "Dumka", "Latitude": 24.29647455, "Longitude": 87.28133017, "Location": "Residential Middle School, Nakti,Dumka", "Block": null, "Capacity(In kWp)": 10, "Category": "Educational Institution", "Financial Year": "FY 16-17" }, "geometry": { "type": "Point", "coordinates": [ 87.28133017, 24.29647455 ] } },
{ "type": "Feature", "properties": { "District": "PashchimiSinghbhum", "Latitude": 22.50530328, "Longitude": 86.71242407, "Location": "K G B V CHAKULIA", "Block": null, "Capacity(In kWp)": 20, "Category": "Educational Institution", "Financial Year": "FY 16-17" }, "geometry": { "type": "Point", "coordinates": [ 86.71242407, 22.50530328 ] } },
{ "type": "Feature", "properties": { "District": "PashchimiSinghbhum", "Latitude": 22.46369825, "Longitude": 86.58646549, "Location": "K G B V DHALBHUMGARH", "Block": null, "Capacity(In kWp)": 20, "Category": "Educational Institution", "Financial Year": "FY 16-17" }, "geometry": { "type": "Point", "coordinates": [ 86.58646549, 22.46369825 ] } },
{ "type": "Feature", "properties": { "District": "PashchimiSinghbhum", "Latitude": 22.47823881, "Longitude": 86.38853631000001, "Location": "K G B V DUMARIA", "Block": null, "Capacity(In kWp)": 20, "Category": "Educational Institution", "Financial Year": "FY 16-17" }, "geometry": { "type": "Point", "coordinates": [ 86.38853631, 22.47823881 ] } },
{ "type": "Feature", "properties": { "District": "PashchimiSinghbhum", "Latitude": 22.65105327, "Longitude": 86.39966236, "Location": "K G B V GHATSHILA", "Block": null, "Capacity(In kWp)": 20, "Category": "Educational Institution", "Financial Year": "FY 16-17" }, "geometry": { "type": "Point", "coordinates": [ 86.39966236, 22.65105327 ] } },
{ "type": "Feature", "properties": { "District": "PashchimiSinghbhum", "Latitude": 22.77064696, "Longitude": 86.16143289, "Location": "K G B V JAMSHEDPUR", "Block": null, "Capacity(In kWp)": 20, "Category": "Educational Institution", "Financial Year": "FY 16-17" }, "geometry": { "type": "Point", "coordinates": [ 86.16143289, 22.77064696 ] } },
{ "type": "Feature", "properties": { "District": "PashchimiSinghbhum", "Latitude": 22.60591317, "Longitude": 86.48915862, "Location": "Residential Boys High School, Uparpawada, Ghatshila.", "Block": null, "Capacity(In kWp)": 10, "Category": "Educational Institution", "Financial Year": "FY 16-17" }, "geometry": { "type": "Point", "coordinates": [ 86.48915862, 22.60591317 ] } },
{ "type": "Feature", "properties": { "District": "PashchimiSinghbhum", "Latitude": 22.90503288, "Longitude": 86.11515253, "Location": "Residential Boys Middle School, Chakuliya.", "Block": null, "Capacity(In kWp)": 10, "Category": "Educational Institution", "Financial Year": "FY 16-17" }, "geometry": { "type": "Point", "coordinates": [ 86.11515253, 22.90503288 ] } },
{ "type": "Feature", "properties": { "District": "PashchimiSinghbhum", "Latitude": 22.47017186, "Longitude": 86.72063249, "Location": "Range Forest Office, Chakulia", "Block": null, "Capacity(In kWp)": 2, "Category": "Govt. Buildings", "Financial Year": "FY 16-17" }, "geometry": { "type": "Point", "coordinates": [ 86.72063249, 22.47017186 ] } },
{ "type": "Feature", "properties": { "District": "PashchimiSinghbhum", "Latitude": 22.66027492, "Longitude": 86.37730872, "Location": "Range Forest Office, Rakhamines", "Block": null, "Capacity(In kWp)": 2, "Category": "Govt. Buildings", "Financial Year": "FY 16-17" }, "geometry": { "type": "Point", "coordinates": [ 86.37730872, 22.66027492 ] } },
{ "type": "Feature", "properties": { "District": "PashchimiSinghbhum", "Latitude": 22.59875614, "Longitude": 86.47255976, "Location": "Range Forest Office, Ghatshila", "Block": null, "Capacity(In kWp)": 2, "Category": "Govt. Buildings", "Financial Year": "FY 16-17" }, "geometry": { "type": "Point", "coordinates": [ 86.47255976, 22.59875614 ] } },
{ "type": "Feature", "properties": { "District": "PashchimiSinghbhum", "Latitude": 22.52973704, "Longitude": 86.45325509, "Location": "Range Forest Office, Musabani", "Block": null, "Capacity(In kWp)": 2, "Category": "Govt. Buildings", "Financial Year": "FY 16-17" }, "geometry": { "type": "Point", "coordinates": [ 86.45325509, 22.52973704 ] } },
{ "type": "Feature", "properties": { "District": "PashchimiSinghbhum", "Latitude": 22.26968586, "Longitude": 85.74170301, "Location": "Range Forest Office, Hatgamharia", "Block": null, "Capacity(In kWp)": 2, "Category": "Govt. Buildings", "Financial Year": "FY 16-17" }, "geometry": { "type": "Point", "coordinates": [ 85.74170301, 22.26968586 ] } },
{ "type": "Feature", "properties": { "District": "PashchimiSinghbhum", "Latitude": 22.83159471, "Longitude": 86.21374649000001, "Location": "Range Forest Office, Dalma Wild Life", "Block": null, "Capacity(In kWp)": 2, "Category": "Govt. Buildings", "Financial Year": "FY 16-17" }, "geometry": { "type": "Point", "coordinates": [ 86.21374649, 22.83159471 ] } },
{ "type": "Feature", "properties": { "District": "Garhwa", "Latitude": 24.05967652, "Longitude": 83.63160759, "Location": "Residential High School, Chiniya, Garhwa", "Block": null, "Capacity(In kWp)": 10, "Category": "Educational Institution", "Financial Year": "FY 16-17" }, "geometry": { "type": "Point", "coordinates": [ 83.63160759, 24.05967652 ] } },
{ "type": "Feature", "properties": { "District": "Garhwa", "Latitude": 23.86362079, "Longitude": 83.87522542000001, "Location": "Residential Middle School, Ramkanda, Garhwa", "Block": null, "Capacity(In kWp)": 10, "Category": "Educational Institution", "Financial Year": "FY 16-17" }, "geometry": { "type": "Point", "coordinates": [ 83.87522542, 23.86362079 ] } },
{ "type": "Feature", "properties": { "District": "Garhwa", "Latitude": 23.6690273, "Longitude": 85.64907676, "Location": "Range Forest Office, Nagar Garhwa", "Block": null, "Capacity(In kWp)": 2, "Category": "Govt. Buildings", "Financial Year": "FY 16-17" }, "geometry": { "type": "Point", "coordinates": [ 85.64907676, 23.6690273 ] } },
{ "type": "Feature", "properties": { "District": "Garhwa", "Latitude": 24.39619913, "Longitude": 83.57547575, "Location": "Range Forest Office, Bhawnathpur Garhwa", "Block": null, "Capacity(In kWp)": 2, "Category": "Govt. Buildings", "Financial Year": "FY 16-17" }, "geometry": { "type": "Point", "coordinates": [ 83.57547575, 24.39619913 ] } },
{ "type": "Feature", "properties": { "District": "Garhwa", "Latitude": 23.73770663, "Longitude": 83.81631273000001, "Location": "KGBV BHANDRIYA", "Block": null, "Capacity(In kWp)": 20, "Category": "Educational Institution", "Financial Year": "FY 16-17" }, "geometry": { "type": "Point", "coordinates": [ 83.81631273, 23.73770663 ] } },
{ "type": "Feature", "properties": { "District": "Garhwa", "Latitude": 24.392525, "Longitude": 83.57173971, "Location": "KGBV BHAWANATHPUR", "Block": null, "Capacity(In kWp)": 20, "Category": "Educational Institution", "Financial Year": "FY 16-17" }, "geometry": { "type": "Point", "coordinates": [ 83.57173971, 24.392525 ] } },
{ "type": "Feature", "properties": { "District": "Garhwa", "Latitude": 24.03361176, "Longitude": 83.61028055, "Location": "KGBV CHINIA", "Block": null, "Capacity(In kWp)": 20, "Category": "Educational Institution", "Financial Year": "FY 16-17" }, "geometry": { "type": "Point", "coordinates": [ 83.61028055, 24.03361176 ] } },
{ "type": "Feature", "properties": { "District": "Garhwa", "Latitude": 24.14916062, "Longitude": 83.44952533, "Location": "KGBV DHURKI", "Block": null, "Capacity(In kWp)": 20, "Category": "Educational Institution", "Financial Year": "FY 16-17" }, "geometry": { "type": "Point", "coordinates": [ 83.44952533, 24.14916062 ] } },
{ "type": "Feature", "properties": { "District": "Garhwa", "Latitude": 24.15026808, "Longitude": 83.82367161000001, "Location": "KGBV GARHWA", "Block": null, "Capacity(In kWp)": 20, "Category": "Educational Institution", "Financial Year": "FY 16-17" }, "geometry": { "type": "Point", "coordinates": [ 83.82367161, 24.15026808 ] } },
{ "type": "Feature", "properties": { "District": "Garhwa", "Latitude": 24.48343177, "Longitude": 83.76801085, "Location": "KGBV KANDI", "Block": null, "Capacity(In kWp)": 20, "Category": "Educational Institution", "Financial Year": "FY 16-17" }, "geometry": { "type": "Point", "coordinates": [ 83.76801085, 24.48343177 ] } },
{ "type": "Feature", "properties": { "District": "Garhwa", "Latitude": 24.44680585, "Longitude": 83.46877117, "Location": "KGBV KHAROUNDHI", "Block": null, "Capacity(In kWp)": 20, "Category": "Educational Institution", "Financial Year": "FY 16-17" }, "geometry": { "type": "Point", "coordinates": [ 83.46877117, 24.44680585 ] } },
{ "type": "Feature", "properties": { "District": "Garhwa", "Latitude": 24.32301901, "Longitude": 83.8123394, "Location": "KGBV MANJHIAON", "Block": null, "Capacity(In kWp)": 20, "Category": "Educational Institution", "Financial Year": "FY 16-17" }, "geometry": { "type": "Point", "coordinates": [ 83.8123394, 24.32301901 ] } },
{ "type": "Feature", "properties": { "District": "Garhwa", "Latitude": 24.18397164, "Longitude": 83.70981633, "Location": "KGBV MERAL", "Block": null, "Capacity(In kWp)": 20, "Category": "Educational Institution", "Financial Year": "FY 16-17" }, "geometry": { "type": "Point", "coordinates": [ 83.70981633, 24.18397164 ] } },
{ "type": "Feature", "properties": { "District": "Garhwa", "Latitude": 23.86668515, "Longitude": 83.87379296, "Location": "KGBV RAMKANDA", "Block": null, "Capacity(In kWp)": 20, "Category": "Educational Institution", "Financial Year": "FY 16-17" }, "geometry": { "type": "Point", "coordinates": [ 83.87379296, 23.86668515 ] } },
{ "type": "Feature", "properties": { "District": "Garhwa", "Latitude": 24.23726195, "Longitude": 83.59106183, "Location": "KGBV RAMNA", "Block": null, "Capacity(In kWp)": 20, "Category": "Educational Institution", "Financial Year": "FY 16-17" }, "geometry": { "type": "Point", "coordinates": [ 83.59106183, 24.23726195 ] } },
{ "type": "Feature", "properties": { "District": "Garhwa", "Latitude": 23.99355176, "Longitude": 83.78893281000001, "Location": "KGBV RANKA", "Block": null, "Capacity(In kWp)": 20, "Category": "Educational Institution", "Financial Year": "FY 16-17" }, "geometry": { "type": "Point", "coordinates": [ 83.78893281, 23.99355176 ] } },
{ "type": "Feature", "properties": { "District": "Giridih", "Latitude": 24.08664233, "Longitude": 85.794695, "Location": "Range Forest Office, Bagodar", "Block": null, "Capacity(In kWp)": 2, "Category": "Govt. Buildings", "Financial Year": "FY 16-17" }, "geometry": { "type": "Point", "coordinates": [ 85.794695, 24.08664233 ] } },
{ "type": "Feature", "properties": { "District": "Giridih", "Latitude": 24.18952363, "Longitude": 86.30626599, "Location": "Sadar Hospital, Giridih", "Block": null, "Capacity(In kWp)": 70, "Category": "Hospital", "Financial Year": "FY 16-17" }, "geometry": { "type": "Point", "coordinates": [ 86.30626599, 24.18952363 ] } },
{ "type": "Feature", "properties": { "District": "Giridih", "Latitude": 24.04930719, "Longitude": 86.16306033, "Location": "Range Forest Office, Parasnath Giridih", "Block": null, "Capacity(In kWp)": 2, "Category": "Govt. Buildings", "Financial Year": "FY 16-17" }, "geometry": { "type": "Point", "coordinates": [ 86.16306033, 24.04930719 ] } },
{ "type": "Feature", "properties": { "District": "Giridih", "Latitude": 24.00029728, "Longitude": 85.999392, "Location": "Range Forest Office, Dumari Giridih", "Block": null, "Capacity(In kWp)": 2, "Category": "Govt. Buildings", "Financial Year": "FY 16-17" }, "geometry": { "type": "Point", "coordinates": [ 85.999392, 24.00029728 ] } },
{ "type": "Feature", "properties": { "District": "Godda", "Latitude": 24.79933513, "Longitude": 87.21147199000001, "Location": "Divisional Forest Office, Godda", "Block": null, "Capacity(In kWp)": 2, "Category": "Govt. Buildings", "Financial Year": "FY 16-17" }, "geometry": { "type": "Point", "coordinates": [ 87.21147199, 24.79933513 ] } },
{ "type": "Feature", "properties": { "District": "Gumla", "Latitude": 24.94993553, "Longitude": 87.1681495, "Location": "Primary Residential School, Maheshpur, Chainpur", "Block": null, "Capacity(In kWp)": 10, "Category": "Educational Institution", "Financial Year": "FY 16-17" }, "geometry": { "type": "Point", "coordinates": [ 87.1681495, 24.94993553 ] } },
{ "type": "Feature", "properties": { "District": "Gumla", "Latitude": 22.87711937, "Longitude": 84.64854328, "Location": "Range Forest Office, Palkot Wild Sanctury Gumla", "Block": null, "Capacity(In kWp)": 2, "Category": "Govt. Buildings", "Financial Year": "FY 16-17" }, "geometry": { "type": "Point", "coordinates": [ 84.64854328, 22.87711937 ] } },
{ "type": "Feature", "properties": { "District": "Hazaribag", "Latitude": 24.00185206, "Longitude": 85.36347137, "Location": "Residential 10+2 School, Hazaribag. ", "Block": null, "Capacity(In kWp)": 10, "Category": "Educational Institution", "Financial Year": "FY 16-17" }, "geometry": { "type": "Point", "coordinates": [ 85.36347137, 24.00185206 ] } },
{ "type": "Feature", "properties": { "District": "Hazaribag", "Latitude": 24.00627527, "Longitude": 85.37988356, "Location": "Primary Residential School, Saral Sinchai colony, Dipugarha", "Block": null, "Capacity(In kWp)": 10, "Category": "Educational Institution", "Financial Year": "FY 16-17" }, "geometry": { "type": "Point", "coordinates": [ 85.37988356, 24.00627527 ] } },
{ "type": "Feature", "properties": { "District": "Hazaribag", "Latitude": 23.9863352, "Longitude": 85.36912708, "Location": "Range Forest Office, Daru", "Block": null, "Capacity(In kWp)": 2, "Category": "Govt. Buildings", "Financial Year": "FY 16-17" }, "geometry": { "type": "Point", "coordinates": [ 85.36912708, 23.9863352 ] } },
{ "type": "Feature", "properties": { "District": "Hazaribag", "Latitude": 24.23933999, "Longitude": 85.50258813000001, "Location": "K.G.B.V. BARHI", "Block": null, "Capacity(In kWp)": 20, "Category": "Educational Institution", "Financial Year": "FY 16-17" }, "geometry": { "type": "Point", "coordinates": [ 85.50258813, 24.23933999 ] } },
{ "type": "Feature", "properties": { "District": "Hazaribag", "Latitude": 23.84245882, "Longitude": 85.24711849000001, "Location": "K.G.B.V. BARKAGAON", "Block": null, "Capacity(In kWp)": 20, "Category": "Educational Institution", "Financial Year": "FY 16-17" }, "geometry": { "type": "Point", "coordinates": [ 85.24711849, 23.84245882 ] } },
{ "type": "Feature", "properties": { "District": "Hazaribag", "Latitude": 24.16855448, "Longitude": 85.60560621, "Location": "K.G.B.V. BARKATHA", "Block": null, "Capacity(In kWp)": 20, "Category": "Educational Institution", "Financial Year": "FY 16-17" }, "geometry": { "type": "Point", "coordinates": [ 85.60560621, 24.16855448 ] } },
{ "type": "Feature", "properties": { "District": "Hazaribag", "Latitude": 24.0334425, "Longitude": 85.73296734, "Location": "K.G.B.V., BISHNUGARH", "Block": null, "Capacity(In kWp)": 20, "Category": "Educational Institution", "Financial Year": "FY 16-17" }, "geometry": { "type": "Point", "coordinates": [ 85.73296734, 24.0334425 ] } },
{ "type": "Feature", "properties": { "District": "Hazaribag", "Latitude": 23.84973808, "Longitude": 85.44689409, "Location": "K.G.B.V. CHARHI (CHURCHU)", "Block": null, "Capacity(In kWp)": 20, "Category": "Educational Institution", "Financial Year": "FY 16-17" }, "geometry": { "type": "Point", "coordinates": [ 85.44689409, 23.84973808 ] } },
{ "type": "Feature", "properties": { "District": "Hazaribag", "Latitude": 24.11244264, "Longitude": 85.2034047, "Location": "K.G.B.V. KATKAMSANDI", "Block": null, "Capacity(In kWp)": 20, "Category": "Educational Institution", "Financial Year": "FY 16-17" }, "geometry": { "type": "Point", "coordinates": [ 85.2034047, 24.11244264 ] } },
{ "type": "Feature", "properties": { "District": "Hazaribag", "Latitude": 24.20669319, "Longitude": 85.3572377, "Location": "K.G.B.V. PADMA", "Block": null, "Capacity(In kWp)": 20, "Category": "Educational Institution", "Financial Year": "FY 16-17" }, "geometry": { "type": "Point", "coordinates": [ 85.3572377, 24.20669319 ] } },
{ "type": "Feature", "properties": { "District": "Jamtara", "Latitude": 23.96938659, "Longitude": 86.79072618, "Location": "Civil Courts, Jamtara", "Block": null, "Capacity(In kWp)": 100, "Category": "Govt. Buildings", "Financial Year": "FY 16-17" }, "geometry": { "type": "Point", "coordinates": [ 86.79072618, 23.96938659 ] } },
{ "type": "Feature", "properties": { "District": "Jamtara", "Latitude": 23.97563776, "Longitude": 87.15601317, "Location": "Range Forest Office, Kundhit Jamtara", "Block": null, "Capacity(In kWp)": 2, "Category": "Govt. Buildings", "Financial Year": "FY 16-17" }, "geometry": { "type": "Point", "coordinates": [ 87.15601317, 23.97563776 ] } },
{ "type": "Feature", "properties": { "District": "Jamtara", "Latitude": 23.91649573, "Longitude": 87.04301084, "Location": "Range Forest Office, Nala Jamtara", "Block": null, "Capacity(In kWp)": 2, "Category": "Govt. Buildings", "Financial Year": "FY 16-17" }, "geometry": { "type": "Point", "coordinates": [ 87.04301084, 23.91649573 ] } },
{ "type": "Feature", "properties": { "District": "Jamtara", "Latitude": 24.07688759, "Longitude": 86.60821174, "Location": "Range Forest Office, Narayanpur Jamtara", "Block": null, "Capacity(In kWp)": 2, "Category": "Govt. Buildings", "Financial Year": "FY 16-17" }, "geometry": { "type": "Point", "coordinates": [ 86.60821174, 24.07688759 ] } },
{ "type": "Feature", "properties": { "District": "Jamtara", "Latitude": 23.95058919, "Longitude": 86.76924033, "Location": "KGBV Jamtara", "Block": null, "Capacity(In kWp)": 20, "Category": "Educational Institution", "Financial Year": "FY 16-17" }, "geometry": { "type": "Point", "coordinates": [ 86.76924033, 23.95058919 ] } },
{ "type": "Feature", "properties": { "District": "Jamtara", "Latitude": 23.9963584, "Longitude": 87.11060053, "Location": "KGBV Kundhit", "Block": null, "Capacity(In kWp)": 20, "Category": "Educational Institution", "Financial Year": "FY 16-17" }, "geometry": { "type": "Point", "coordinates": [ 87.11060053, 23.9963584 ] } },
{ "type": "Feature", "properties": { "District": "Jamtara", "Latitude": 23.93065562, "Longitude": 87.01337505, "Location": "KGBV Nala", "Block": null, "Capacity(In kWp)": 20, "Category": "Educational Institution", "Financial Year": "FY 16-17" }, "geometry": { "type": "Point", "coordinates": [ 87.01337505, 23.93065562 ] } },
{ "type": "Feature", "properties": { "District": "Jamtara", "Latitude": 24.06052632, "Longitude": 86.62069588, "Location": "KGBV Narayanpur", "Block": null, "Capacity(In kWp)": 20, "Category": "Educational Institution", "Financial Year": "FY 16-17" }, "geometry": { "type": "Point", "coordinates": [ 86.62069588, 24.06052632 ] } },
{ "type": "Feature", "properties": { "District": "Jamtara", "Latitude": 23.97118439, "Longitude": 87.16310389, "Location": "Residential Middle School, Kundhit.", "Block": null, "Capacity(In kWp)": 10, "Category": "Educational Institution", "Financial Year": "FY 16-17" }, "geometry": { "type": "Point", "coordinates": [ 87.16310389, 23.97118439 ] } },
{ "type": "Feature", "properties": { "District": "Khunti", "Latitude": 23.00188288, "Longitude": 85.53664165000001, "Location": "Residential High School, Arki", "Block": null, "Capacity(In kWp)": 10, "Category": "Educational Institution", "Financial Year": "FY 16-17" }, "geometry": { "type": "Point", "coordinates": [ 85.53664165, 23.00188288 ] } },
{ "type": "Feature", "properties": { "District": "Kodarma", "Latitude": 24.47846058, "Longitude": 85.59599002, "Location": "Civil Courts, Kodarma", "Block": null, "Capacity(In kWp)": 100, "Category": "Govt. Buildings", "Financial Year": "FY 16-17" }, "geometry": { "type": "Point", "coordinates": [ 85.59599002, 24.47846058 ] } },
{ "type": "Feature", "properties": { "District": "Latehar", "Latitude": 23.88725609, "Longitude": 84.19403551000001, "Location": "Primary Residential School, Betla", "Block": null, "Capacity(In kWp)": 10, "Category": "Educational Institution", "Financial Year": "FY 16-17" }, "geometry": { "type": "Point", "coordinates": [ 84.19403551, 23.88725609 ] } },
{ "type": "Feature", "properties": { "District": "Latehar", "Latitude": 23.75578073, "Longitude": 84.35415737, "Location": "Primary Residential School, Netarhat", "Block": null, "Capacity(In kWp)": 10, "Category": "Educational Institution", "Financial Year": "FY 16-17" }, "geometry": { "type": "Point", "coordinates": [ 84.35415737, 23.75578073 ] } },
{ "type": "Feature", "properties": { "District": "Latehar", "Latitude": 23.74330142, "Longitude": 84.51009424, "Location": "Civil Courts, Latehar", "Block": null, "Capacity(In kWp)": 100, "Category": "Govt. Buildings", "Financial Year": "FY 16-17" }, "geometry": { "type": "Point", "coordinates": [ 84.51009424, 23.74330142 ] } },
{ "type": "Feature", "properties": { "District": "Latehar", "Latitude": 23.86884925, "Longitude": 84.36027794, "Location": "Range Forest Office, Manika Latehar", "Block": null, "Capacity(In kWp)": 2, "Category": "Govt. Buildings", "Financial Year": "FY 16-17" }, "geometry": { "type": "Point", "coordinates": [ 84.36027794, 23.86884925 ] } },
{ "type": "Feature", "properties": { "District": "Latehar", "Latitude": 23.73148933, "Longitude": 84.47180178000001, "Location": "Range Forest Office, Richughuta Latehar", "Block": null, "Capacity(In kWp)": 2, "Category": "Govt. Buildings", "Financial Year": "FY 16-17" }, "geometry": { "type": "Point", "coordinates": [ 84.47180178, 23.73148933 ] } },
{ "type": "Feature", "properties": { "District": "Latehar", "Latitude": 23.67112036, "Longitude": 84.73422929, "Location": "Range Forest Office, Chandwa Latehar", "Block": null, "Capacity(In kWp)": 2, "Category": "Govt. Buildings", "Financial Year": "FY 16-17" }, "geometry": { "type": "Point", "coordinates": [ 84.73422929, 23.67112036 ] } },
{ "type": "Feature", "properties": { "District": "Latehar", "Latitude": 23.82823057, "Longitude": 84.79019025, "Location": "Range Forest Office, Balumath Latehar", "Block": null, "Capacity(In kWp)": 2, "Category": "Govt. Buildings", "Financial Year": "FY 16-17" }, "geometry": { "type": "Point", "coordinates": [ 84.79019025, 23.82823057 ] } },
{ "type": "Feature", "properties": { "District": "Latehar", "Latitude": 23.66524986, "Longitude": 84.23542541, "Location": "Residential Primary School, Garu.", "Block": null, "Capacity(In kWp)": 10, "Category": "Educational Institution", "Financial Year": "FY 16-17" }, "geometry": { "type": "Point", "coordinates": [ 84.23542541, 23.66524986 ] } },
{ "type": "Feature", "properties": { "District": "Lohardaga", "Latitude": 23.44312031, "Longitude": 84.68544978, "Location": "KGBV LOHARDAGA", "Block": null, "Capacity(In kWp)": 20, "Category": "Educational Institution", "Financial Year": "FY 16-17" }, "geometry": { "type": "Point", "coordinates": [ 84.68544978, 23.44312031 ] } },
{ "type": "Feature", "properties": { "District": "Lohardaga", "Latitude": 23.44189789, "Longitude": 84.68527187, "Location": "Sadar Hospital, Lohardaga", "Block": null, "Capacity(In kWp)": 30, "Category": "Hospital", "Financial Year": "FY 16-17" }, "geometry": { "type": "Point", "coordinates": [ 84.68527187, 23.44189789 ] } },
{ "type": "Feature", "properties": { "District": "Lohardaga", "Latitude": 23.65198779, "Longitude": 84.56146881, "Location": "Residential Middle School, Paisrar.", "Block": null, "Capacity(In kWp)": 10, "Category": "Educational Institution", "Financial Year": "FY 16-17" }, "geometry": { "type": "Point", "coordinates": [ 84.56146881, 23.65198779 ] } },
{ "type": "Feature", "properties": { "District": "Lohardaga", "Latitude": 23.41859646, "Longitude": 84.69237809000001, "Location": "Residential Girls Middle School, Lohardaga.", "Block": null, "Capacity(In kWp)": 10, "Category": "Educational Institution", "Financial Year": "FY 16-17" }, "geometry": { "type": "Point", "coordinates": [ 84.69237809, 23.41859646 ] } },
{ "type": "Feature", "properties": { "District": "Pakur", "Latitude": 24.63126828, "Longitude": 87.82472304, "Location": "Range Forest Office, Pakur", "Block": null, "Capacity(In kWp)": 2, "Category": "Govt. Buildings", "Financial Year": "FY 16-17" }, "geometry": { "type": "Point", "coordinates": [ 87.82472304, 24.63126828 ] } },
{ "type": "Feature", "properties": { "District": "Pakur", "Latitude": 24.6303318, "Longitude": 87.82017658, "Location": "Range Forest Office, Hiranpur Pakur", "Block": null, "Capacity(In kWp)": 2, "Category": "Govt. Buildings", "Financial Year": "FY 16-17" }, "geometry": { "type": "Point", "coordinates": [ 87.82017658, 24.6303318 ] } },
{ "type": "Feature", "properties": { "District": "Pakur", "Latitude": 24.6297188, "Longitude": 87.82050919, "Location": "Range Forest Office, Amarapara Pakur", "Block": null, "Capacity(In kWp)": 2, "Category": "Govt. Buildings", "Financial Year": "FY 16-17" }, "geometry": { "type": "Point", "coordinates": [ 87.82050919, 24.6297188 ] } },
{ "type": "Feature", "properties": { "District": "Pakur", "Latitude": 24.58461683, "Longitude": 87.53259155000001, "Location": "KGBV AMRAPARA", "Block": null, "Capacity(In kWp)": 20, "Category": "Educational Institution", "Financial Year": "FY 16-17" }, "geometry": { "type": "Point", "coordinates": [ 87.53259155, 24.58461683 ] } },
{ "type": "Feature", "properties": { "District": "Pakur", "Latitude": 24.69007238, "Longitude": 87.61811237000001, "Location": "KGBV LITTIPARA", "Block": null, "Capacity(In kWp)": 20, "Category": "Educational Institution", "Financial Year": "FY 16-17" }, "geometry": { "type": "Point", "coordinates": [ 87.61811237, 24.69007238 ] } },
{ "type": "Feature", "properties": { "District": "Pakur", "Latitude": 24.48651041, "Longitude": 87.66429695, "Location": "KGBV MAHESHPUR", "Block": null, "Capacity(In kWp)": 20, "Category": "Educational Institution", "Financial Year": "FY 16-17" }, "geometry": { "type": "Point", "coordinates": [ 87.66429695, 24.48651041 ] } },
{ "type": "Feature", "properties": { "District": "Pakur", "Latitude": 24.63625553, "Longitude": 87.84994123, "Location": "KGBV PAKUR", "Block": null, "Capacity(In kWp)": 20, "Category": "Educational Institution", "Financial Year": "FY 16-17" }, "geometry": { "type": "Point", "coordinates": [ 87.84994123, 24.63625553 ] } },
{ "type": "Feature", "properties": { "District": "Pakur", "Latitude": 24.32652093, "Longitude": 87.7073178, "Location": "KGBV PAKURIA", "Block": null, "Capacity(In kWp)": 20, "Category": "Educational Institution", "Financial Year": "FY 16-17" }, "geometry": { "type": "Point", "coordinates": [ 87.7073178, 24.32652093 ] } },
{ "type": "Feature", "properties": { "District": "Palamu", "Latitude": 23.40011065, "Longitude": 84.10523205, "Location": "Range Forest Office, Mahuatand, Palamu", "Block": null, "Capacity(In kWp)": 2, "Category": "Govt. Buildings", "Financial Year": "FY 16-17" }, "geometry": { "type": "Point", "coordinates": [ 84.10523205, 23.40011065 ] } },
{ "type": "Feature", "properties": { "District": "Palamu", "Latitude": 24.22046124, "Longitude": 84.39963902, "Location": "Range Forest Office, Manatu", "Block": null, "Capacity(In kWp)": 2, "Category": "Govt. Buildings", "Financial Year": "FY 16-17" }, "geometry": { "type": "Point", "coordinates": [ 84.39963902, 24.22046124 ] } },
{ "type": "Feature", "properties": { "District": "Ramgarh", "Latitude": 23.63219774, "Longitude": 85.53555885, "Location": "KGBV KAITHA, Ramgarh", "Block": null, "Capacity(In kWp)": 20, "Category": "Educational Institution", "Financial Year": "FY 16-17" }, "geometry": { "type": "Point", "coordinates": [ 85.53555885, 23.63219774 ] } },
{ "type": "Feature", "properties": { "District": "Ramgarh", "Latitude": 23.63229739, "Longitude": 85.53572372, "Location": "KGBV GOLA, Ramgarh", "Block": null, "Capacity(In kWp)": 20, "Category": "Educational Institution", "Financial Year": "FY 16-17" }, "geometry": { "type": "Point", "coordinates": [ 85.53572372, 23.63229739 ] } },
{ "type": "Feature", "properties": { "District": "Ramgarh", "Latitude": 23.81118628, "Longitude": 85.46634583, "Location": "KGBV MANDU, Ramgarh", "Block": null, "Capacity(In kWp)": 20, "Category": "Educational Institution", "Financial Year": "FY 16-17" }, "geometry": { "type": "Point", "coordinates": [ 85.46634583, 23.81118628 ] } },
{ "type": "Feature", "properties": { "District": "Ramgarh", "Latitude": 23.62142741, "Longitude": 85.47169267, "Location": "KGBV Patratu(BARKAKANA), Ramgarh", "Block": null, "Capacity(In kWp)": 20, "Category": "Educational Institution", "Financial Year": "FY 16-17" }, "geometry": { "type": "Point", "coordinates": [ 85.47169267, 23.62142741 ] } },
{ "type": "Feature", "properties": { "District": "Ramgarh", "Latitude": 23.6328552, "Longitude": 85.51353824, "Location": "Range Forest Office, Gola Ramgarh", "Block": null, "Capacity(In kWp)": 2, "Category": "Govt. Buildings", "Financial Year": "FY 16-17" }, "geometry": { "type": "Point", "coordinates": [ 85.51353824, 23.6328552 ] } },
{ "type": "Feature", "properties": { "District": "Ramgarh", "Latitude": 23.80958043, "Longitude": 85.47061521000001, "Location": "Residential Boys High School, Mandu, Ramgarh", "Block": null, "Capacity(In kWp)": 10, "Category": "Educational Institution", "Financial Year": "FY 16-17" }, "geometry": { "type": "Point", "coordinates": [ 85.47061521, 23.80958043 ] } },
{ "type": "Feature", "properties": { "District": "Ramgarh", "Latitude": 23.53697963, "Longitude": 85.71524992000001, "Location": "Residential Girls Middle School, Gola, Ramgarh", "Block": null, "Capacity(In kWp)": 10, "Category": "Educational Institution", "Financial Year": "FY 16-17" }, "geometry": { "type": "Point", "coordinates": [ 85.71524992, 23.53697963 ] } },
{ "type": "Feature", "properties": { "District": "Ramgarh", "Latitude": 23.61074525, "Longitude": 85.56883841, "Location": "Civil Courts, Ramgarh", "Block": null, "Capacity(In kWp)": 100, "Category": "Govt. Buildings", "Financial Year": "FY 16-17" }, "geometry": { "type": "Point", "coordinates": [ 85.56883841, 23.61074525 ] } },
{ "type": "Feature", "properties": { "District": "Ranchi", "Latitude": 23.17576385, "Longitude": 85.57964684, "Location": "Residential High School, Bundu", "Block": null, "Capacity(In kWp)": 10, "Category": "Educational Institution", "Financial Year": "FY 16-17" }, "geometry": { "type": "Point", "coordinates": [ 85.57964684, 23.17576385 ] } },
{ "type": "Feature", "properties": { "District": "Ranchi", "Latitude": 23.43397037, "Longitude": 85.32114523, "Location": "KGBV KANKE", "Block": null, "Capacity(In kWp)": 20, "Category": "Educational Institution", "Financial Year": "FY 16-17" }, "geometry": { "type": "Point", "coordinates": [ 85.32114523, 23.43397037 ] } },
{ "type": "Feature", "properties": { "District": "Ranchi", "Latitude": 23.37251965, "Longitude": 85.79895311, "Location": "KGBV SILLI, Ranchi", "Block": null, "Capacity(In kWp)": 20, "Category": "Educational Institution", "Financial Year": "FY 16-17" }, "geometry": { "type": "Point", "coordinates": [ 85.79895311, 23.37251965 ] } },
{ "type": "Feature", "properties": { "District": "Ranchi", "Latitude": 23.08296512, "Longitude": 85.64071234, "Location": "Eklavya Model Residential School, Salgahdih, Tamar, Ranchi", "Block": null, "Capacity(In kWp)": 10, "Category": "Educational Institution", "Financial Year": "FY 16-17" }, "geometry": { "type": "Point", "coordinates": [ 85.64071234, 23.08296512 ] } },
{ "type": "Feature", "properties": { "District": "Ranchi", "Latitude": 23.37446627, "Longitude": 85.33096075, "Location": "Residential 10+2 School, Jail Road, Ranchi", "Block": null, "Capacity(In kWp)": 10, "Category": "Educational Institution", "Financial Year": "FY 16-17" }, "geometry": { "type": "Point", "coordinates": [ 85.33096075, 23.37446627 ] } },
{ "type": "Feature", "properties": { "District": "Ranchi", "Latitude": 23.47223817, "Longitude": 85.06414832, "Location": "KGBV MANDAR", "Block": null, "Capacity(In kWp)": 20, "Category": "Educational Institution", "Financial Year": "FY 16-17" }, "geometry": { "type": "Point", "coordinates": [ 85.06414832, 23.47223817 ] } },
{ "type": "Feature", "properties": { "District": "Ranchi", "Latitude": 23.24072155, "Longitude": 85.5642675, "Location": "Residential Boys Middle School, Amanburu, Ranchi", "Block": null, "Capacity(In kWp)": 10, "Category": "Educational Institution", "Financial Year": "FY 16-17" }, "geometry": { "type": "Point", "coordinates": [ 85.5642675, 23.24072155 ] } },
{ "type": "Feature", "properties": { "District": "Ranchi", "Latitude": 23.51961787, "Longitude": 85.55457846, "Location": "Range Forest Office, Mutta Crocodile Breeding Centre Ranchi", "Block": null, "Capacity(In kWp)": 2, "Category": "Govt. Buildings", "Financial Year": "FY 16-17" }, "geometry": { "type": "Point", "coordinates": [ 85.55457846, 23.51961787 ] } },
{ "type": "Feature", "properties": { "District": "Ranchi", "Latitude": 23.42225195, "Longitude": 85.23748038, "Location": "KGBV CHANHO", "Block": null, "Capacity(In kWp)": 20, "Category": "Educational Institution", "Financial Year": "FY 16-17" }, "geometry": { "type": "Point", "coordinates": [ 85.23748038, 23.42225195 ] } },
{ "type": "Feature", "properties": { "District": "Ranchi", "Latitude": 23.57352987, "Longitude": 85.13180384, "Location": "KGBV BURMU", "Block": null, "Capacity(In kWp)": 20, "Category": "Educational Institution", "Financial Year": "FY 16-17" }, "geometry": { "type": "Point", "coordinates": [ 85.13180384, 23.57352987 ] } },
{ "type": "Feature", "properties": { "District": "Ranchi", "Latitude": 23.19358778, "Longitude": 85.70698092000001, "Location": "KGBV SONAHATU", "Block": null, "Capacity(In kWp)": 20, "Category": "Educational Institution", "Financial Year": "FY 16-17" }, "geometry": { "type": "Point", "coordinates": [ 85.70698092, 23.19358778 ] } },
{ "type": "Feature", "properties": { "District": "Ranchi", "Latitude": 23.09716501, "Longitude": 84.95868822, "Location": "KGBV LAPUNG", "Block": null, "Capacity(In kWp)": 20, "Category": "Educational Institution", "Financial Year": "FY 16-17" }, "geometry": { "type": "Point", "coordinates": [ 84.95868822, 23.09716501 ] } },
{ "type": "Feature", "properties": { "District": "Ranchi", "Latitude": 23.30420381, "Longitude": 85.01743586000001, "Location": "Residential Boys High School, Sonchipi, Ranchi", "Block": null, "Capacity(In kWp)": 10, "Category": "Educational Institution", "Financial Year": "FY 16-17" }, "geometry": { "type": "Point", "coordinates": [ 85.01743586, 23.30420381 ] } },
{ "type": "Feature", "properties": { "District": "Ranchi", "Latitude": 23.29279858, "Longitude": 84.9996834, "Location": "Residential Boys High School, Baridih, Ranchi", "Block": null, "Capacity(In kWp)": 10, "Category": "Educational Institution", "Financial Year": "FY 16-17" }, "geometry": { "type": "Point", "coordinates": [ 84.9996834, 23.29279858 ] } },
{ "type": "Feature", "properties": { "District": "Ranchi", "Latitude": 23.40522707, "Longitude": 85.48523875, "Location": "KGBV ANGARA", "Block": null, "Capacity(In kWp)": 20, "Category": "Educational Institution", "Financial Year": "FY 16-17" }, "geometry": { "type": "Point", "coordinates": [ 85.48523875, 23.40522707 ] } },
{ "type": "Feature", "properties": { "District": "Ranchi", "Latitude": 23.30517747, "Longitude": 85.01800516, "Location": "KGBV BERO", "Block": null, "Capacity(In kWp)": 20, "Category": "Educational Institution", "Financial Year": "FY 16-17" }, "geometry": { "type": "Point", "coordinates": [ 85.01800516, 23.30517747 ] } },
{ "type": "Feature", "properties": { "District": "Ranchi", "Latitude": 23.1552366, "Longitude": 85.58185861, "Location": "KGBV BUNDU", "Block": null, "Capacity(In kWp)": 20, "Category": "Educational Institution", "Financial Year": "FY 16-17" }, "geometry": { "type": "Point", "coordinates": [ 85.58185861, 23.1552366 ] } },
{ "type": "Feature", "properties": { "District": "Ranchi", "Latitude": 23.08329198, "Longitude": 85.64427593000001, "Location": "KGBV TAMAR", "Block": null, "Capacity(In kWp)": 20, "Category": "Educational Institution", "Financial Year": "FY 16-17" }, "geometry": { "type": "Point", "coordinates": [ 85.64427593, 23.08329198 ] } },
{ "type": "Feature", "properties": { "District": "Ranchi", "Latitude": 23.25219139, "Longitude": 85.45486464, "Location": "KGBV NAMKUM", "Block": null, "Capacity(In kWp)": 20, "Category": "Educational Institution", "Financial Year": "FY 16-17" }, "geometry": { "type": "Point", "coordinates": [ 85.45486464, 23.25219139 ] } },
{ "type": "Feature", "properties": { "District": "Ranchi", "Latitude": 23.48024596, "Longitude": 85.47549971, "Location": "KGBV ORMANJHI", "Block": null, "Capacity(In kWp)": 20, "Category": "Educational Institution", "Financial Year": "FY 16-17" }, "geometry": { "type": "Point", "coordinates": [ 85.47549971, 23.48024596 ] } },
{ "type": "Feature", "properties": { "District": "Ranchi", "Latitude": 23.16049249, "Longitude": 85.63088954, "Location": "Birsa Munda Residential Boys High School, Bundu.", "Block": null, "Capacity(In kWp)": 10, "Category": "Educational Institution", "Financial Year": "FY 16-17" }, "geometry": { "type": "Point", "coordinates": [ 85.63088954, 23.16049249 ] } },
{ "type": "Feature", "properties": { "District": "Sahibganj", "Latitude": 25.22424504, "Longitude": 87.62274686000001, "Location": "Primary Residential School, Karampahad, Sahibganj", "Block": null, "Capacity(In kWp)": 10, "Category": "Educational Institution", "Financial Year": "FY 16-17" }, "geometry": { "type": "Point", "coordinates": [ 87.62274686, 25.22424504 ] } },
{ "type": "Feature", "properties": { "District": "SaraikelaKharsawan", "Latitude": 22.71043072, "Longitude": 85.943353, "Location": "Range Forest Offices, Saraikela", "Block": null, "Capacity(In kWp)": 2, "Category": "Govt. Buildings", "Financial Year": "FY 16-17" }, "geometry": { "type": "Point", "coordinates": [ 85.943353, 22.71043072 ] } },
{ "type": "Feature", "properties": { "District": "SaraikelaKharsawan", "Latitude": 22.70359766, "Longitude": 85.92895657, "Location": "Range Forest Offices, Saraikela", "Block": null, "Capacity(In kWp)": 2, "Category": "Govt. Buildings", "Financial Year": "FY 16-17" }, "geometry": { "type": "Point", "coordinates": [ 85.92895657, 22.70359766 ] } },
{ "type": "Feature", "properties": { "District": "SaraikelaKharsawan", "Latitude": 22.70287357, "Longitude": 85.92832768, "Location": "Sadar Hospital, Saraikela", "Block": null, "Capacity(In kWp)": 30, "Category": "Hospital", "Financial Year": "FY 16-17" }, "geometry": { "type": "Point", "coordinates": [ 85.92832768, 22.70287357 ] } },
{ "type": "Feature", "properties": { "District": "purbaSinghbhum", "Latitude": 22.529165, "Longitude": 85.81101648000001, "Location": "Residential Girls High School, Chaibasa.", "Block": null, "Capacity(In kWp)": 10, "Category": "Educational Institution", "Financial Year": "FY 16-17" }, "geometry": { "type": "Point", "coordinates": [ 85.81101648, 22.529165 ] } },
{ "type": "Feature", "properties": { "District": "purbaSinghbhum", "Latitude": 22.23689645, "Longitude": 85.30620979, "Location": "Residential Middle School, Chhotanagara", "Block": null, "Capacity(In kWp)": 10, "Category": "Educational Institution", "Financial Year": "FY 16-17" }, "geometry": { "type": "Point", "coordinates": [ 85.30620979, 22.23689645 ] } },
{ "type": "Feature", "properties": { "District": "purbaSinghbhum", "Latitude": 22.50324254, "Longitude": 85.37738046, "Location": "Residential Primary School, Goyalkera", "Block": null, "Capacity(In kWp)": 10, "Category": "Educational Institution", "Financial Year": "FY 16-17" }, "geometry": { "type": "Point", "coordinates": [ 85.37738046, 22.50324254 ] } },
{ "type": "Feature", "properties": { "District": "purbaSinghbhum", "Latitude": 22.635987, "Longitude": 86.22022814, "Location": "KGBV POTKA", "Block": null, "Capacity(In kWp)": 20, "Category": "Educational Institution", "Financial Year": "FY 16-17" }, "geometry": { "type": "Point", "coordinates": [ 86.22022814, 22.635987 ] } },
{ "type": "Feature", "properties": { "District": "purbaSinghbhum", "Latitude": 22.95997111, "Longitude": 86.41115201, "Location": "KGBV PATAMDA", "Block": null, "Capacity(In kWp)": 20, "Category": "Educational Institution", "Financial Year": "FY 16-17" }, "geometry": { "type": "Point", "coordinates": [ 86.41115201, 22.95997111 ] } },
{ "type": "Feature", "properties": { "District": "purbaSinghbhum", "Latitude": 22.8615346, "Longitude": 85.34049831, "Location": "KGBV BANDGAON", "Block": null, "Capacity(In kWp)": 20, "Category": "Educational Institution", "Financial Year": "FY 16-17" }, "geometry": { "type": "Point", "coordinates": [ 85.34049831, 22.8615346 ] } },
{ "type": "Feature", "properties": { "District": "purbaSinghbhum", "Latitude": 22.43078232, "Longitude": 85.77178548000001, "Location": "KGBV JHINKPANI", "Block": null, "Capacity(In kWp)": 20, "Category": "Educational Institution", "Financial Year": "FY 16-17" }, "geometry": { "type": "Point", "coordinates": [ 85.77178548, 22.43078232 ] } },
{ "type": "Feature", "properties": { "District": "purbaSinghbhum", "Latitude": 22.70583538, "Longitude": 85.81376908, "Location": "KGBV KHUNTPANI", "Block": null, "Capacity(In kWp)": 20, "Category": "Educational Institution", "Financial Year": "FY 16-17" }, "geometry": { "type": "Point", "coordinates": [ 85.81376908, 22.70583538 ] } },
{ "type": "Feature", "properties": { "District": "purbaSinghbhum", "Latitude": 22.09034254, "Longitude": 85.87599065000001, "Location": "KGBV MAJHGAON", "Block": null, "Capacity(In kWp)": 20, "Category": "Educational Institution", "Financial Year": "FY 16-17" }, "geometry": { "type": "Point", "coordinates": [ 85.87599065, 22.09034254 ] } },
{ "type": "Feature", "properties": { "District": "purbaSinghbhum", "Latitude": 22.33356319, "Longitude": 85.96258207, "Location": "KGBV MANJHARI", "Block": null, "Capacity(In kWp)": 20, "Category": "Educational Institution", "Financial Year": "FY 16-17" }, "geometry": { "type": "Point", "coordinates": [ 85.96258207, 22.33356319 ] } },
{ "type": "Feature", "properties": { "District": "purbaSinghbhum", "Latitude": 22.15810685, "Longitude": 85.50937715000001, "Location": "KGBV NOAMUNDI", "Block": null, "Capacity(In kWp)": 20, "Category": "Educational Institution", "Financial Year": "FY 16-17" }, "geometry": { "type": "Point", "coordinates": [ 85.50937715, 22.15810685 ] } },
{ "type": "Feature", "properties": { "District": "purbaSinghbhum", "Latitude": 22.55948319, "Longitude": 85.81633594, "Location": "KGBV SADAR CHAIBASA", "Block": null, "Capacity(In kWp)": 20, "Category": "Hospital", "Financial Year": "FY 16-17" }, "geometry": { "type": "Point", "coordinates": [ 85.81633594, 22.55948319 ] } },
{ "type": "Feature", "properties": { "District": "purbaSinghbhum", "Latitude": 22.27814653, "Longitude": 86.71018384, "Location": "K G B V BAHRAGORA", "Block": null, "Capacity(In kWp)": 20, "Category": "Educational Institution", "Financial Year": "FY 16-17" }, "geometry": { "type": "Point", "coordinates": [ 86.71018384, 22.27814653 ] } },
{ "type": "Feature", "properties": { "District": "purbaSinghbhum", "Latitude": 22.62340087, "Longitude": 86.22206919, "Location": "Residential Boys Middle School, Bhabernagar, Potka.", "Block": null, "Capacity(In kWp)": 10, "Category": "Educational Institution", "Financial Year": "FY 16-17" }, "geometry": { "type": "Point", "coordinates": [ 86.22206919, 22.62340087 ] } },
{ "type": "Feature", "properties": { "District": "purbaSinghbhum", "Latitude": 22.36527013, "Longitude": 86.58475352000001, "Location": "Residential Boys Middle School, Singhpura, Lalkota.", "Block": null, "Capacity(In kWp)": 10, "Category": "Educational Institution", "Financial Year": "FY 16-17" }, "geometry": { "type": "Point", "coordinates": [ 86.58475352, 22.36527013 ] } },
{ "type": "Feature", "properties": { "District": "purbaSinghbhum", "Latitude": 22.55003356, "Longitude": 85.79839357, "Location": "Range Forest Office, Chaibasa", "Block": null, "Capacity(In kWp)": 2, "Category": "Govt. Buildings", "Financial Year": "FY 16-17" }, "geometry": { "type": "Point", "coordinates": [ 85.79839357, 22.55003356 ] } },
{ "type": "Feature", "properties": { "District": "purbaSinghbhum", "Latitude": 22.6815282, "Longitude": 85.61409532, "Location": "Range Forest Office, Songara, Chakradharpur", "Block": null, "Capacity(In kWp)": 2, "Category": "Govt. Buildings", "Financial Year": "FY 16-17" }, "geometry": { "type": "Point", "coordinates": [ 85.61409532, 22.6815282 ] } },
{ "type": "Feature", "properties": { "District": "purbaSinghbhum", "Latitude": 22.68183161, "Longitude": 85.6138841, "Location": "Range Forest Office, Kera, Chakradharpur", "Block": null, "Capacity(In kWp)": 2, "Category": "Govt. Buildings", "Financial Year": "FY 16-17" }, "geometry": { "type": "Point", "coordinates": [ 85.6138841, 22.68183161 ] } },
{ "type": "Feature", "properties": { "District": "Bokaro", "Latitude": 23.83623093, "Longitude": 86.04206954, "Location": "CHC Navadih", "Block": null, "Capacity(In kWp)": 10, "Category": "Hospital", "Financial Year": "FY 17-18" }, "geometry": { "type": "Point", "coordinates": [ 86.04206954, 23.83623093 ] } },
{ "type": "Feature", "properties": { "District": "Bokaro", "Latitude": 23.80105072, "Longitude": 85.81942065, "Location": "CHC Gomia", "Block": null, "Capacity(In kWp)": 10, "Category": "Hospital", "Financial Year": "FY 17-18" }, "geometry": { "type": "Point", "coordinates": [ 85.81942065, 23.80105072 ] } },
{ "type": "Feature", "properties": { "District": "Bokaro", "Latitude": 23.62149697, "Longitude": 85.85972354, "Location": "CHC Petarwar", "Block": null, "Capacity(In kWp)": 10, "Category": "Hospital", "Financial Year": "FY 17-18" }, "geometry": { "type": "Point", "coordinates": [ 85.85972354, 23.62149697 ] } },
{ "type": "Feature", "properties": { "District": "Bokaro", "Latitude": 23.60919702, "Longitude": 85.93718346, "Location": "CHC Kasmar", "Block": null, "Capacity(In kWp)": 10, "Category": "Hospital", "Financial Year": "FY 17-18" }, "geometry": { "type": "Point", "coordinates": [ 85.93718346, 23.60919702 ] } },
{ "type": "Feature", "properties": { "District": "Bokaro", "Latitude": 23.56709162, "Longitude": 86.37116277, "Location": "CHC Chandankiyari", "Block": null, "Capacity(In kWp)": 10, "Category": "Hospital", "Financial Year": "FY 17-18" }, "geometry": { "type": "Point", "coordinates": [ 86.37116277, 23.56709162 ] } },
{ "type": "Feature", "properties": { "District": "Bokaro", "Latitude": 23.74085138, "Longitude": 85.83605431, "Location": "CHC Tenughat", "Block": null, "Capacity(In kWp)": 10, "Category": "Hospital", "Financial Year": "FY 17-18" }, "geometry": { "type": "Point", "coordinates": [ 85.83605431, 23.74085138 ] } },
{ "type": "Feature", "properties": { "District": "Bokaro", "Latitude": 23.64107195, "Longitude": 86.15780462, "Location": "DC Office, Bokaro", "Block": null, "Capacity(In kWp)": 60, "Category": "Govt. Buildings", "Financial Year": "FY 17-18" }, "geometry": { "type": "Point", "coordinates": [ 86.15780462, 23.64107195 ] } },
{ "type": "Feature", "properties": { "District": "Bokaro", "Latitude": 23.73172512, "Longitude": 85.8535235, "Location": "Sub Jail Tenughat", "Block": null, "Capacity(In kWp)": 100, "Category": "Govt. Buildings", "Financial Year": "FY 17-18" }, "geometry": { "type": "Point", "coordinates": [ 85.8535235, 23.73172512 ] } },
{ "type": "Feature", "properties": { "District": "Bokaro", "Latitude": 23.60710802, "Longitude": 86.18315173000001, "Location": "District Jail Chas Bokaro", "Block": null, "Capacity(In kWp)": 60, "Category": "Govt. Buildings", "Financial Year": "FY 17-18" }, "geometry": { "type": "Point", "coordinates": [ 86.18315173, 23.60710802 ] } },
{ "type": "Feature", "properties": { "District": "Chatra", "Latitude": 24.20771944, "Longitude": 84.88350504, "Location": "DC Office, Chatra", "Block": null, "Capacity(In kWp)": 60, "Category": "Govt. Buildings", "Financial Year": "FY 17-18" }, "geometry": { "type": "Point", "coordinates": [ 84.88350504, 24.20771944 ] } },
{ "type": "Feature", "properties": { "District": "Deoghar", "Latitude": 24.49254609, "Longitude": 86.69221814, "Location": "District Jail Deoghar", "Block": null, "Capacity(In kWp)": 30, "Category": "Govt. Buildings", "Financial Year": "FY 17-18" }, "geometry": { "type": "Point", "coordinates": [ 86.69221814, 24.49254609 ] } },
{ "type": "Feature", "properties": { "District": "Dhanbad", "Latitude": 23.83884898, "Longitude": 86.51893027, "Location": "Residential High School, Govindpur", "Block": null, "Capacity(In kWp)": 10, "Category": "Educational Institution", "Financial Year": "FY 17-18" }, "geometry": { "type": "Point", "coordinates": [ 86.51893027, 23.83884898 ] } },
{ "type": "Feature", "properties": { "District": "Dhanbad", "Latitude": 23.79943621, "Longitude": 86.43248092, "Location": "District Jail  Dhanbad", "Block": null, "Capacity(In kWp)": 100, "Category": "Govt. Buildings", "Financial Year": "FY 17-18" }, "geometry": { "type": "Point", "coordinates": [ 86.43248092, 23.79943621 ] } },
{ "type": "Feature", "properties": { "District": "Dumka", "Latitude": 24.31890145, "Longitude": 87.29296656, "Location": "KGBV DUMKA", "Block": null, "Capacity(In kWp)": 20, "Category": "Educational Institution", "Financial Year": "FY 17-18" }, "geometry": { "type": "Point", "coordinates": [ 87.29296656, 24.31890145 ] } },
{ "type": "Feature", "properties": { "District": "Dumka", "Latitude": 24.42634499, "Longitude": 87.47959621, "Location": "KGBV GOPIKANDAR", "Block": null, "Capacity(In kWp)": 20, "Category": "Educational Institution", "Financial Year": "FY 17-18" }, "geometry": { "type": "Point", "coordinates": [ 87.47959621, 24.42634499 ] } },
{ "type": "Feature", "properties": { "District": "Dumka", "Latitude": 24.37005231, "Longitude": 87.12108067, "Location": "KGBV JARMUNDI", "Block": null, "Capacity(In kWp)": 20, "Category": "Educational Institution", "Financial Year": "FY 17-18" }, "geometry": { "type": "Point", "coordinates": [ 87.12108067, 24.37005231 ] } },
{ "type": "Feature", "properties": { "District": "Dumka", "Latitude": 24.36011778, "Longitude": 87.42953295, "Location": "KGBV KATHIKUND", "Block": null, "Capacity(In kWp)": 20, "Category": "Educational Institution", "Financial Year": "FY 17-18" }, "geometry": { "type": "Point", "coordinates": [ 87.42953295, 24.36011778 ] } },
{ "type": "Feature", "properties": { "District": "Dumka", "Latitude": 24.15549028, "Longitude": 87.17976567, "Location": "KGBV MASALIA", "Block": null, "Capacity(In kWp)": 20, "Category": "Educational Institution", "Financial Year": "FY 17-18" }, "geometry": { "type": "Point", "coordinates": [ 87.17976567, 24.15549028 ] } },
{ "type": "Feature", "properties": { "District": "Dumka", "Latitude": 23.63245562, "Longitude": 85.53654584, "Location": "KGBV RAMGARH", "Block": null, "Capacity(In kWp)": 20, "Category": "Educational Institution", "Financial Year": "FY 17-18" }, "geometry": { "type": "Point", "coordinates": [ 85.53654584, 23.63245562 ] } },
{ "type": "Feature", "properties": { "District": "Dumka", "Latitude": 24.04812494, "Longitude": 87.41220076, "Location": "KGBV RANESHWAR", "Block": null, "Capacity(In kWp)": 20, "Category": "Educational Institution", "Financial Year": "FY 17-18" }, "geometry": { "type": "Point", "coordinates": [ 87.41220076, 24.04812494 ] } },
{ "type": "Feature", "properties": { "District": "Dumka", "Latitude": 24.57048615, "Longitude": 87.00418324, "Location": "KGBV SARAIYAHAT", "Block": null, "Capacity(In kWp)": 20, "Category": "Educational Institution", "Financial Year": "FY 17-18" }, "geometry": { "type": "Point", "coordinates": [ 87.00418324, 24.57048615 ] } },
{ "type": "Feature", "properties": { "District": "Dumka", "Latitude": 24.23703386, "Longitude": 87.41917587, "Location": "KGBV SHIKARIPARA", "Block": null, "Capacity(In kWp)": 20, "Category": "Educational Institution", "Financial Year": "FY 17-18" }, "geometry": { "type": "Point", "coordinates": [ 87.41917587, 24.23703386 ] } },
{ "type": "Feature", "properties": { "District": "Dumka", "Latitude": 24.26104578, "Longitude": 87.24769602000001, "Location": "DC Office, Dumka", "Block": null, "Capacity(In kWp)": 60, "Category": "Govt. Buildings", "Financial Year": "FY 17-18" }, "geometry": { "type": "Point", "coordinates": [ 87.24769602, 24.26104578 ] } },
{ "type": "Feature", "properties": { "District": "Dumka", "Latitude": 24.58009368, "Longitude": 87.01304688, "Location": "CHC Saraihat", "Block": null, "Capacity(In kWp)": 10, "Category": "Hospital", "Financial Year": "FY 17-18" }, "geometry": { "type": "Point", "coordinates": [ 87.01304688, 24.58009368 ] } },
{ "type": "Feature", "properties": { "District": "Dumka", "Latitude": 24.39433967, "Longitude": 87.05033803000001, "Location": "CHC Jarmundi", "Block": null, "Capacity(In kWp)": 10, "Category": "Hospital", "Financial Year": "FY 17-18" }, "geometry": { "type": "Point", "coordinates": [ 87.05033803, 24.39433967 ] } },